{
"type": "FeatureCollection",
"name": "stops",
"crs": { "type": "name", "properties": { "name": "urn:ogc:def:crs:OGC:1.3:CRS84" } },
"features": [
{ "type": "Feature", "properties": { "stop_id": "stop_point:SP_100", "stop_name": "De Pisan", "location_type": 0, "wheelchair_boarding": 2, "route_type": 3.0 }, "geometry": { "type": "Point", "coordinates": [ 1.448330258196801, 43.629861582330172, 0.0 ] } },
{ "type": "Feature", "properties": { "stop_id": "stop_point:SP_1000", "stop_name": "ZI Bois Vert N°1", "location_type": 0, "wheelchair_boarding": 2, "route_type": 3.0 }, "geometry": { "type": "Point", "coordinates": [ 1.382882828911826, 43.531774999750226, 0.0 ] } },
{ "type": "Feature", "properties": { "stop_id": "stop_point:SP_1002", "stop_name": "Lalande", "location_type": 0, "wheelchair_boarding": 1, "route_type": 3.0 }, "geometry": { "type": "Point", "coordinates": [ 1.529197434820342, 43.557031130685445, 0.0 ] } },
{ "type": "Feature", "properties": { "stop_id": "stop_point:SP_1004", "stop_name": "Vitarelles", "location_type": 0, "wheelchair_boarding": 1, "route_type": 3.0 }, "geometry": { "type": "Point", "coordinates": [ 1.321056053073216, 43.503686021359279, 0.0 ] } },
{ "type": "Feature", "properties": { "stop_id": "stop_point:SP_1005", "stop_name": "Canteloup", "location_type": 0, "wheelchair_boarding": 1, "route_type": 3.0 }, "geometry": { "type": "Point", "coordinates": [ 1.531808707419988, 43.541353040981534, 0.0 ] } },
{ "type": "Feature", "properties": { "stop_id": "stop_point:SP_1007", "stop_name": "Voie Romaine", "location_type": 0, "wheelchair_boarding": 1, "route_type": 3.0 }, "geometry": { "type": "Point", "coordinates": [ 1.379854881332479, 43.702753133062394, 0.0 ] } },
{ "type": "Feature", "properties": { "stop_id": "stop_point:SP_1008", "stop_name": "Cabanis", "location_type": 0, "wheelchair_boarding": 1, "route_type": 3.0 }, "geometry": { "type": "Point", "coordinates": [ 1.506351730023664, 43.691403742015417, 0.0 ] } },
{ "type": "Feature", "properties": { "stop_id": "stop_point:SP_1009", "stop_name": "Logis Vieux", "location_type": 0, "wheelchair_boarding": 1, "route_type": 3.0 }, "geometry": { "type": "Point", "coordinates": [ 1.522007885896601, 43.643321606435123, 0.0 ] } },
{ "type": "Feature", "properties": { "stop_id": "stop_point:SP_101", "stop_name": "Pompidou", "location_type": 0, "wheelchair_boarding": 1, "route_type": 3.0 }, "geometry": { "type": "Point", "coordinates": [ 1.477163851913745, 43.549304188542145, 0.0 ] } },
{ "type": "Feature", "properties": { "stop_id": "stop_point:SP_1010", "stop_name": "St Cyprien - République", "location_type": 0, "wheelchair_boarding": 1, "route_type": 3.0 }, "geometry": { "type": "Point", "coordinates": [ 1.430434625639113, 43.598113567063734, 0.0 ] } },
{ "type": "Feature", "properties": { "stop_id": "stop_point:SP_1011", "stop_name": "Grasse", "location_type": 0, "wheelchair_boarding": 2, "route_type": 3.0 }, "geometry": { "type": "Point", "coordinates": [ 1.496310297986239, 43.649473728894577, 0.0 ] } },
{ "type": "Feature", "properties": { "stop_id": "stop_point:SP_1012", "stop_name": "Stadium Ouest", "location_type": 0, "wheelchair_boarding": 1, "route_type": 3.0 }, "geometry": { "type": "Point", "coordinates": [ 1.432028922087511, 43.584459075458533, 0.0 ] } },
{ "type": "Feature", "properties": { "stop_id": "stop_point:SP_1013", "stop_name": "Palais de Justice", "location_type": 0, "wheelchair_boarding": 1, "route_type": 1.0 }, "geometry": { "type": "Point", "coordinates": [ 1.444009457485539, 43.592832533957178, 0.0 ] } },
{ "type": "Feature", "properties": { "stop_id": "stop_point:SP_1014", "stop_name": "Pont Vieil", "location_type": 0, "wheelchair_boarding": 2, "route_type": 3.0 }, "geometry": { "type": "Point", "coordinates": [ 1.427036486911659, 43.691644587093819, 0.0 ] } },
{ "type": "Feature", "properties": { "stop_id": "stop_point:SP_1015", "stop_name": "ZAC Ponts Jumeaux", "location_type": 0, "wheelchair_boarding": 1, "route_type": 3.0 }, "geometry": { "type": "Point", "coordinates": [ 1.422714406121257, 43.611943123802625, 0.0 ] } },
{ "type": "Feature", "properties": { "stop_id": "stop_point:SP_1017", "stop_name": "Fontainebleau", "location_type": 0, "wheelchair_boarding": 1, "route_type": 3.0 }, "geometry": { "type": "Point", "coordinates": [ 1.466429861721599, 43.58014041586798, 0.0 ] } },
{ "type": "Feature", "properties": { "stop_id": "stop_point:SP_1018", "stop_name": "ZI Drémil", "location_type": 0, "wheelchair_boarding": 2, "route_type": 3.0 }, "geometry": { "type": "Point", "coordinates": [ 1.592600439621683, 43.594905269559014, 0.0 ] } },
{ "type": "Feature", "properties": { "stop_id": "stop_point:SP_1019", "stop_name": "Renan", "location_type": 0, "wheelchair_boarding": 1, "route_type": 3.0 }, "geometry": { "type": "Point", "coordinates": [ 1.443811057043753, 43.633966382922921, 0.0 ] } },
{ "type": "Feature", "properties": { "stop_id": "stop_point:SP_1020", "stop_name": "Piscine", "location_type": 0, "wheelchair_boarding": 1, "route_type": 3.0 }, "geometry": { "type": "Point", "coordinates": [ 1.1722857907998, 43.512857700204087, 0.0 ] } },
{ "type": "Feature", "properties": { "stop_id": "stop_point:SP_1021", "stop_name": "Coteaux", "location_type": 0, "wheelchair_boarding": 1, "route_type": 3.0 }, "geometry": { "type": "Point", "coordinates": [ 1.452737933935086, 43.567049281891627, 0.0 ] } },
{ "type": "Feature", "properties": { "stop_id": "stop_point:SP_1022", "stop_name": "Route de Castanet", "location_type": 0, "wheelchair_boarding": 1, "route_type": 3.0 }, "geometry": { "type": "Point", "coordinates": [ 1.527339857081717, 43.537158195657163, 0.0 ] } },
{ "type": "Feature", "properties": { "stop_id": "stop_point:SP_1023", "stop_name": "Bordenoire", "location_type": 0, "wheelchair_boarding": 1, "route_type": 3.0 }, "geometry": { "type": "Point", "coordinates": [ 1.347553687530615, 43.560804736542423, 0.0 ] } },
{ "type": "Feature", "properties": { "stop_id": "stop_point:SP_1024", "stop_name": "Chaumière", "location_type": 0, "wheelchair_boarding": 1, "route_type": 3.0 }, "geometry": { "type": "Point", "coordinates": [ 1.465966089461101, 43.614104972698158, 0.0 ] } },
{ "type": "Feature", "properties": { "stop_id": "stop_point:SP_1027", "stop_name": "Plaisance Monestié", "location_type": 0, "wheelchair_boarding": 1, "route_type": 3.0 }, "geometry": { "type": "Point", "coordinates": [ 1.290906272475472, 43.56314933534307, 0.0 ] } },
{ "type": "Feature", "properties": { "stop_id": "stop_point:SP_1028", "stop_name": "Villenouvelle", "location_type": 0, "wheelchair_boarding": 1, "route_type": 3.0 }, "geometry": { "type": "Point", "coordinates": [ 1.376638779105676, 43.552531824239175, 0.0 ] } },
{ "type": "Feature", "properties": { "stop_id": "stop_point:SP_1029", "stop_name": "Céciré", "location_type": 0, "wheelchair_boarding": 1, "route_type": 3.0 }, "geometry": { "type": "Point", "coordinates": [ 1.5699090652734, 43.613055941456786, 0.0 ] } },
{ "type": "Feature", "properties": { "stop_id": "stop_point:SP_1030", "stop_name": "Lachambre", "location_type": 0, "wheelchair_boarding": 1, "route_type": 3.0 }, "geometry": { "type": "Point", "coordinates": [ 1.393823248334848, 43.49899665637215, 0.0 ] } },
{ "type": "Feature", "properties": { "stop_id": "stop_point:SP_1031", "stop_name": "La Place", "location_type": 0, "wheelchair_boarding": 1, "route_type": 3.0 }, "geometry": { "type": "Point", "coordinates": [ 1.56280263002236, 43.52356893690586, 0.0 ] } },
{ "type": "Feature", "properties": { "stop_id": "stop_point:SP_1032", "stop_name": "La Tour", "location_type": 0, "wheelchair_boarding": 2, "route_type": 3.0 }, "geometry": { "type": "Point", "coordinates": [ 1.56365082693371, 43.510727913581555, 0.0 ] } },
{ "type": "Feature", "properties": { "stop_id": "stop_point:SP_1033", "stop_name": "Communauté Religieuse", "location_type": 0, "wheelchair_boarding": 1, "route_type": 3.0 }, "geometry": { "type": "Point", "coordinates": [ 1.532478720003243, 43.611251342157573, 0.0 ] } },
{ "type": "Feature", "properties": { "stop_id": "stop_point:SP_1034", "stop_name": "Demouilles", "location_type": 0, "wheelchair_boarding": 1, "route_type": 3.0 }, "geometry": { "type": "Point", "coordinates": [ 1.456684516460535, 43.589282672943845, 0.0 ] } },
{ "type": "Feature", "properties": { "stop_id": "stop_point:SP_1035", "stop_name": "Pastourelles", "location_type": 0, "wheelchair_boarding": 1, "route_type": 3.0 }, "geometry": { "type": "Point", "coordinates": [ 1.455842777692147, 43.577001304802629, 0.0 ] } },
{ "type": "Feature", "properties": { "stop_id": "stop_point:SP_1036", "stop_name": "Cité Scolaire Rive Gauche", "location_type": 0, "wheelchair_boarding": 2, "route_type": 3.0 }, "geometry": { "type": "Point", "coordinates": [ 1.398511934883643, 43.58410142225474, 0.0 ] } },
{ "type": "Feature", "properties": { "stop_id": "stop_point:SP_1037", "stop_name": "Doumergue", "location_type": 0, "wheelchair_boarding": 1, "route_type": 3.0 }, "geometry": { "type": "Point", "coordinates": [ 1.499981960310968, 43.621805297967498, 0.0 ] } },
{ "type": "Feature", "properties": { "stop_id": "stop_point:SP_1038", "stop_name": "Joliot Curie", "location_type": 0, "wheelchair_boarding": 1, "route_type": 3.0 }, "geometry": { "type": "Point", "coordinates": [ 1.484272447358595, 43.551080846389837, 0.0 ] } },
{ "type": "Feature", "properties": { "stop_id": "stop_point:SP_1042", "stop_name": "Béarn", "location_type": 0, "wheelchair_boarding": 1, "route_type": 3.0 }, "geometry": { "type": "Point", "coordinates": [ 1.337824762072182, 43.536940280447517, 0.0 ] } },
{ "type": "Feature", "properties": { "stop_id": "stop_point:SP_1044", "stop_name": "Cascade", "location_type": 0, "wheelchair_boarding": 2, "route_type": 3.0 }, "geometry": { "type": "Point", "coordinates": [ 1.345293154409536, 43.574964146996265, 0.0 ] } },
{ "type": "Feature", "properties": { "stop_id": "stop_point:SP_1045", "stop_name": "ZI Montredon", "location_type": 0, "wheelchair_boarding": 1, "route_type": 3.0 }, "geometry": { "type": "Point", "coordinates": [ 1.500541523558168, 43.638158209761919, 0.0 ] } },
{ "type": "Feature", "properties": { "stop_id": "stop_point:SP_1046", "stop_name": "Tournelle", "location_type": 0, "wheelchair_boarding": 1, "route_type": 3.0 }, "geometry": { "type": "Point", "coordinates": [ 1.399135190769003, 43.683010676620313, 0.0 ] } },
{ "type": "Feature", "properties": { "stop_id": "stop_point:SP_1047", "stop_name": "Jean Moulin", "location_type": 0, "wheelchair_boarding": 1, "route_type": 3.0 }, "geometry": { "type": "Point", "coordinates": [ 1.452321241437282, 43.672469145231794, 0.0 ] } },
{ "type": "Feature", "properties": { "stop_id": "stop_point:SP_1048", "stop_name": "Château d'eau", "location_type": 0, "wheelchair_boarding": 1, "route_type": 3.0 }, "geometry": { "type": "Point", "coordinates": [ 1.275777358779856, 43.576354270169162, 0.0 ] } },
{ "type": "Feature", "properties": { "stop_id": "stop_point:SP_1049", "stop_name": "Eglise Drémil", "location_type": 0, "wheelchair_boarding": 1, "route_type": 3.0 }, "geometry": { "type": "Point", "coordinates": [ 1.601482239472084, 43.596936309522533, 0.0 ] } },
{ "type": "Feature", "properties": { "stop_id": "stop_point:SP_105", "stop_name": "Aérodrome", "location_type": 0, "wheelchair_boarding": 1, "route_type": 3.0 }, "geometry": { "type": "Point", "coordinates": [ 1.498057479334807, 43.594743059627525, 0.0 ] } },
{ "type": "Feature", "properties": { "stop_id": "stop_point:SP_1050", "stop_name": "Tuilerie", "location_type": 0, "wheelchair_boarding": 1, "route_type": 3.0 }, "geometry": { "type": "Point", "coordinates": [ 1.289135343937982, 43.616360318146, 0.0 ] } },
{ "type": "Feature", "properties": { "stop_id": "stop_point:SP_1051", "stop_name": "Grand Rond", "location_type": 0, "wheelchair_boarding": 1, "route_type": 3.0 }, "geometry": { "type": "Point", "coordinates": [ 1.453154611864346, 43.594355708585951, 0.0 ] } },
{ "type": "Feature", "properties": { "stop_id": "stop_point:SP_1052", "stop_name": "F. Mitterrand", "location_type": 0, "wheelchair_boarding": 1, "route_type": 3.0 }, "geometry": { "type": "Point", "coordinates": [ 1.50679738155593, 43.665403831156027, 0.0 ] } },
{ "type": "Feature", "properties": { "stop_id": "stop_point:SP_1053", "stop_name": "Soupetard", "location_type": 0, "wheelchair_boarding": 1, "route_type": 3.0 }, "geometry": { "type": "Point", "coordinates": [ 1.477458891117719, 43.612392899927315, 0.0 ] } },
{ "type": "Feature", "properties": { "stop_id": "stop_point:SP_1055", "stop_name": "Buxtehude", "location_type": 0, "wheelchair_boarding": 1, "route_type": 3.0 }, "geometry": { "type": "Point", "coordinates": [ 1.382495029624895, 43.648923524867293, 0.0 ] } },
{ "type": "Feature", "properties": { "stop_id": "stop_point:SP_1056", "stop_name": "Baqué", "location_type": 0, "wheelchair_boarding": 1, "route_type": 3.0 }, "geometry": { "type": "Point", "coordinates": [ 1.434420503636084, 43.623554111908788, 0.0 ] } },
{ "type": "Feature", "properties": { "stop_id": "stop_point:SP_1057", "stop_name": "Fleming", "location_type": 0, "wheelchair_boarding": 1, "route_type": 3.0 }, "geometry": { "type": "Point", "coordinates": [ 1.380890852796838, 43.579061799974951, 0.0 ] } },
{ "type": "Feature", "properties": { "stop_id": "stop_point:SP_106", "stop_name": "Base Aérienne", "location_type": 0, "wheelchair_boarding": 1, "route_type": 3.0 }, "geometry": { "type": "Point", "coordinates": [ 1.369010266483464, 43.537786883724195, 0.0 ] } },
{ "type": "Feature", "properties": { "stop_id": "stop_point:SP_1063", "stop_name": "Troubadours", "location_type": 0, "wheelchair_boarding": 1, "route_type": 3.0 }, "geometry": { "type": "Point", "coordinates": [ 1.539653603030825, 43.526279215981823, 0.0 ] } },
{ "type": "Feature", "properties": { "stop_id": "stop_point:SP_1067", "stop_name": "Douzans", "location_type": 0, "wheelchair_boarding": 1, "route_type": 3.0 }, "geometry": { "type": "Point", "coordinates": [ 1.328576915101489, 43.468206012971258, 0.0 ] } },
{ "type": "Feature", "properties": { "stop_id": "stop_point:SP_1069", "stop_name": "Ecole St-Jean", "location_type": 0, "wheelchair_boarding": 1, "route_type": 3.0 }, "geometry": { "type": "Point", "coordinates": [ 1.500074275120672, 43.668654571483629, 0.0 ] } },
{ "type": "Feature", "properties": { "stop_id": "stop_point:SP_1070", "stop_name": "Pampare", "location_type": 0, "wheelchair_boarding": 1, "route_type": 3.0 }, "geometry": { "type": "Point", "coordinates": [ 1.576075469171074, 43.612818180102501, 0.0 ] } },
{ "type": "Feature", "properties": { "stop_id": "stop_point:SP_1071", "stop_name": "Plaine", "location_type": 0, "wheelchair_boarding": 2, "route_type": 3.0 }, "geometry": { "type": "Point", "coordinates": [ 1.409627213459905, 43.673222018779917, 0.0 ] } },
{ "type": "Feature", "properties": { "stop_id": "stop_point:SP_1072", "stop_name": "Jean Jaurès", "location_type": 0, "wheelchair_boarding": 1, "route_type": 3.0 }, "geometry": { "type": "Point", "coordinates": [ 1.323078212141844, 43.506006860123193, 0.0 ] } },
{ "type": "Feature", "properties": { "stop_id": "stop_point:SP_1074", "stop_name": "Ctre Cial Labège", "location_type": 0, "wheelchair_boarding": 2, "route_type": 3.0 }, "geometry": { "type": "Point", "coordinates": [ 1.506020632344957, 43.549475176233138, 0.0 ] } },
{ "type": "Feature", "properties": { "stop_id": "stop_point:SP_1075", "stop_name": "Vivier", "location_type": 0, "wheelchair_boarding": 1, "route_type": 3.0 }, "geometry": { "type": "Point", "coordinates": [ 1.340110308483657, 43.537938414950212, 0.0 ] } },
{ "type": "Feature", "properties": { "stop_id": "stop_point:SP_1076", "stop_name": "St-Jean Clinique de L'Union", "location_type": 0, "wheelchair_boarding": 1, "route_type": 3.0 }, "geometry": { "type": "Point", "coordinates": [ 1.509738128982382, 43.650731392140599, 0.0 ] } },
{ "type": "Feature", "properties": { "stop_id": "stop_point:SP_1077", "stop_name": "Pont du Béarnais", "location_type": 0, "wheelchair_boarding": 1, "route_type": 3.0 }, "geometry": { "type": "Point", "coordinates": [ 1.424680239001139, 43.61224735854389, 0.0 ] } },
{ "type": "Feature", "properties": { "stop_id": "stop_point:SP_108", "stop_name": "Provence", "location_type": 0, "wheelchair_boarding": 1, "route_type": 3.0 }, "geometry": { "type": "Point", "coordinates": [ 1.45762588386064, 43.581636728335845, 0.0 ] } },
{ "type": "Feature", "properties": { "stop_id": "stop_point:SP_1081", "stop_name": "Condorcet", "location_type": 0, "wheelchair_boarding": 2, "route_type": 3.0 }, "geometry": { "type": "Point", "coordinates": [ 1.448504408881796, 43.659998054100747, 0.0 ] } },
{ "type": "Feature", "properties": { "stop_id": "stop_point:SP_1082", "stop_name": "Rixens", "location_type": 0, "wheelchair_boarding": 1, "route_type": 3.0 }, "geometry": { "type": "Point", "coordinates": [ 1.453088074740388, 43.627165291418393, 0.0 ] } },
{ "type": "Feature", "properties": { "stop_id": "stop_point:SP_1083", "stop_name": "Beau Soleil", "location_type": 0, "wheelchair_boarding": 1, "route_type": 3.0 }, "geometry": { "type": "Point", "coordinates": [ 1.37272873959481, 43.670255998924709, 0.0 ] } },
{ "type": "Feature", "properties": { "stop_id": "stop_point:SP_1084", "stop_name": "Canal du Midi", "location_type": 0, "wheelchair_boarding": 1, "route_type": 3.0 }, "geometry": { "type": "Point", "coordinates": [ 1.434690782969919, 43.615304767273628, 0.0 ] } },
{ "type": "Feature", "properties": { "stop_id": "stop_point:SP_1086", "stop_name": "Douanes", "location_type": 0, "wheelchair_boarding": 1, "route_type": 3.0 }, "geometry": { "type": "Point", "coordinates": [ 1.397175153571786, 43.574644775606203, 0.0 ] } },
{ "type": "Feature", "properties": { "stop_id": "stop_point:SP_1087", "stop_name": "Braves", "location_type": 0, "wheelchair_boarding": 1, "route_type": 3.0 }, "geometry": { "type": "Point", "coordinates": [ 1.419290568843786, 43.600837477776388, 0.0 ] } },
{ "type": "Feature", "properties": { "stop_id": "stop_point:SP_1088", "stop_name": "Bourdette", "location_type": 0, "wheelchair_boarding": 1, "route_type": 3.0 }, "geometry": { "type": "Point", "coordinates": [ 1.456613487010935, 43.554601690340498, 0.0 ] } },
{ "type": "Feature", "properties": { "stop_id": "stop_point:SP_1089", "stop_name": "Belloc Cité", "location_type": 0, "wheelchair_boarding": 1, "route_type": 3.0 }, "geometry": { "type": "Point", "coordinates": [ 1.473931844580618, 43.606508771886539, 0.0 ] } },
{ "type": "Feature", "properties": { "stop_id": "stop_point:SP_109", "stop_name": "Av. Raymond Naves", "location_type": 0, "wheelchair_boarding": 1, "route_type": 3.0 }, "geometry": { "type": "Point", "coordinates": [ 1.472720726120267, 43.598185636949843, 0.0 ] } },
{ "type": "Feature", "properties": { "stop_id": "stop_point:SP_1090", "stop_name": "Rebel", "location_type": 0, "wheelchair_boarding": 2, "route_type": 3.0 }, "geometry": { "type": "Point", "coordinates": [ 1.542930607517098, 43.677491804971829, 0.0 ] } },
{ "type": "Feature", "properties": { "stop_id": "stop_point:SP_1091", "stop_name": "St-Pierre", "location_type": 0, "wheelchair_boarding": 1, "route_type": 3.0 }, "geometry": { "type": "Point", "coordinates": [ 1.336325408755838, 43.5836147423542, 0.0 ] } },
{ "type": "Feature", "properties": { "stop_id": "stop_point:SP_1093", "stop_name": "Victor Cousin", "location_type": 0, "wheelchair_boarding": 1, "route_type": 3.0 }, "geometry": { "type": "Point", "coordinates": [ 1.472761851471164, 43.63002263778673, 0.0 ] } },
{ "type": "Feature", "properties": { "stop_id": "stop_point:SP_1095", "stop_name": "Sophie Scholl", "location_type": 0, "wheelchair_boarding": 1, "route_type": 3.0 }, "geometry": { "type": "Point", "coordinates": [ 1.538781407777639, 43.54556355172506, 0.0 ] } },
{ "type": "Feature", "properties": { "stop_id": "stop_point:SP_1096", "stop_name": "Satre", "location_type": 0, "wheelchair_boarding": 2, "route_type": 3.0 }, "geometry": { "type": "Point", "coordinates": [ 1.364694284614761, 43.684264753534805, 0.0 ] } },
{ "type": "Feature", "properties": { "stop_id": "stop_point:SP_1097", "stop_name": "Patinoire-Barradels", "location_type": 0, "wheelchair_boarding": 1, "route_type": 0.0 }, "geometry": { "type": "Point", "coordinates": [ 1.382731527172173, 43.640041872961405, 0.0 ] } },
{ "type": "Feature", "properties": { "stop_id": "stop_point:SP_1098", "stop_name": "Faculté de Pharmacie", "location_type": 0, "wheelchair_boarding": 1, "route_type": 3.0 }, "geometry": { "type": "Point", "coordinates": [ 1.464262674261021, 43.567427883156363, 0.0 ] } },
{ "type": "Feature", "properties": { "stop_id": "stop_point:SP_1099", "stop_name": "Fondargent", "location_type": 0, "wheelchair_boarding": 1, "route_type": 3.0 }, "geometry": { "type": "Point", "coordinates": [ 1.518405056454126, 43.561466398493408, 0.0 ] } },
{ "type": "Feature", "properties": { "stop_id": "stop_point:SP_11", "stop_name": "Gauguin", "location_type": 0, "wheelchair_boarding": 1, "route_type": 3.0 }, "geometry": { "type": "Point", "coordinates": [ 1.395382532476344, 43.518118598725991, 0.0 ] } },
{ "type": "Feature", "properties": { "stop_id": "stop_point:SP_110", "stop_name": "Landes", "location_type": 0, "wheelchair_boarding": 1, "route_type": 3.0 }, "geometry": { "type": "Point", "coordinates": [ 1.416928658174585, 43.57280311887142, 0.0 ] } },
{ "type": "Feature", "properties": { "stop_id": "stop_point:SP_1100", "stop_name": "Ctre Cial L'Union", "location_type": 0, "wheelchair_boarding": 1, "route_type": 3.0 }, "geometry": { "type": "Point", "coordinates": [ 1.478941958639646, 43.656013438006703, 0.0 ] } },
{ "type": "Feature", "properties": { "stop_id": "stop_point:SP_1101", "stop_name": "Charlas", "location_type": 0, "wheelchair_boarding": 1, "route_type": 3.0 }, "geometry": { "type": "Point", "coordinates": [ 1.43245375644497, 43.630226195155608, 0.0 ] } },
{ "type": "Feature", "properties": { "stop_id": "stop_point:SP_1102", "stop_name": "Marqueille", "location_type": 0, "wheelchair_boarding": 1, "route_type": 3.0 }, "geometry": { "type": "Point", "coordinates": [ 1.52127303810133, 43.56229792639661, 0.0 ] } },
{ "type": "Feature", "properties": { "stop_id": "stop_point:SP_1104", "stop_name": "Récollets Daste", "location_type": 0, "wheelchair_boarding": 1, "route_type": 3.0 }, "geometry": { "type": "Point", "coordinates": [ 1.442573859757194, 43.583586866048591, 0.0 ] } },
{ "type": "Feature", "properties": { "stop_id": "stop_point:SP_1105", "stop_name": "Mimosas", "location_type": 0, "wheelchair_boarding": 1, "route_type": 3.0 }, "geometry": { "type": "Point", "coordinates": [ 1.470209834836552, 43.70098697426581, 0.0 ] } },
{ "type": "Feature", "properties": { "stop_id": "stop_point:SP_1106", "stop_name": "Ile du Ramier", "location_type": 0, "wheelchair_boarding": 1, "route_type": 0.0 }, "geometry": { "type": "Point", "coordinates": [ 1.440431348443871, 43.59222766472854, 0.0 ] } },
{ "type": "Feature", "properties": { "stop_id": "stop_point:SP_1107", "stop_name": "Ponts Jumeaux", "location_type": 0, "wheelchair_boarding": 1, "route_type": 3.0 }, "geometry": { "type": "Point", "coordinates": [ 1.420242517168793, 43.609797289705227, 0.0 ] } },
{ "type": "Feature", "properties": { "stop_id": "stop_point:SP_1109", "stop_name": "Clos St-Martin", "location_type": 0, "wheelchair_boarding": 1, "route_type": 3.0 }, "geometry": { "type": "Point", "coordinates": [ 1.502912693704301, 43.597205700371894, 0.0 ] } },
{ "type": "Feature", "properties": { "stop_id": "stop_point:SP_111", "stop_name": "Mairie St-Jean", "location_type": 0, "wheelchair_boarding": 1, "route_type": 3.0 }, "geometry": { "type": "Point", "coordinates": [ 1.50431956025389, 43.665664348260563, 0.0 ] } },
{ "type": "Feature", "properties": { "stop_id": "stop_point:SP_1110", "stop_name": "La Tour", "location_type": 0, "wheelchair_boarding": 1, "route_type": 3.0 }, "geometry": { "type": "Point", "coordinates": [ 1.502862001677146, 43.609221993486749, 0.0 ] } },
{ "type": "Feature", "properties": { "stop_id": "stop_point:SP_1113", "stop_name": "La Place", "location_type": 0, "wheelchair_boarding": 1, "route_type": 3.0 }, "geometry": { "type": "Point", "coordinates": [ 1.563218741972662, 43.523944016077166, 0.0 ] } },
{ "type": "Feature", "properties": { "stop_id": "stop_point:SP_1114", "stop_name": "Langevin", "location_type": 0, "wheelchair_boarding": 1, "route_type": 3.0 }, "geometry": { "type": "Point", "coordinates": [ 1.474997847741316, 43.58613598364051, 0.0 ] } },
{ "type": "Feature", "properties": { "stop_id": "stop_point:SP_1115", "stop_name": "Jean Moulin", "location_type": 0, "wheelchair_boarding": 1, "route_type": 3.0 }, "geometry": { "type": "Point", "coordinates": [ 1.452486946479953, 43.672404879344342, 0.0 ] } },
{ "type": "Feature", "properties": { "stop_id": "stop_point:SP_1116", "stop_name": "Frizac", "location_type": 0, "wheelchair_boarding": 1, "route_type": 3.0 }, "geometry": { "type": "Point", "coordinates": [ 1.453531128456605, 43.591123847614561, 0.0 ] } },
{ "type": "Feature", "properties": { "stop_id": "stop_point:SP_1117", "stop_name": "Arsenal", "location_type": 0, "wheelchair_boarding": 1, "route_type": 3.0 }, "geometry": { "type": "Point", "coordinates": [ 1.433665259245337, 43.605608284334302, 0.0 ] } },
{ "type": "Feature", "properties": { "stop_id": "stop_point:SP_1119", "stop_name": "Pompidou", "location_type": 0, "wheelchair_boarding": 1, "route_type": 3.0 }, "geometry": { "type": "Point", "coordinates": [ 1.47760488474471, 43.548819643647754, 0.0 ] } },
{ "type": "Feature", "properties": { "stop_id": "stop_point:SP_112", "stop_name": "Colonel Rémy", "location_type": 0, "wheelchair_boarding": 1, "route_type": 3.0 }, "geometry": { "type": "Point", "coordinates": [ 1.465030557729871, 43.635253167073586, 0.0 ] } },
{ "type": "Feature", "properties": { "stop_id": "stop_point:SP_1120", "stop_name": "Pl de l'Armée d'Afrique", "location_type": 0, "wheelchair_boarding": 1, "route_type": 3.0 }, "geometry": { "type": "Point", "coordinates": [ 1.454646620239643, 43.624244105242632, 0.0 ] } },
{ "type": "Feature", "properties": { "stop_id": "stop_point:SP_1121", "stop_name": "Récollets Daste", "location_type": 0, "wheelchair_boarding": 1, "route_type": 3.0 }, "geometry": { "type": "Point", "coordinates": [ 1.443426873727933, 43.583833909558813, 0.0 ] } },
{ "type": "Feature", "properties": { "stop_id": "stop_point:SP_1122", "stop_name": "Roussillon", "location_type": 0, "wheelchair_boarding": 2, "route_type": 3.0 }, "geometry": { "type": "Point", "coordinates": [ 1.280992098040574, 43.567608262374264, 0.0 ] } },
{ "type": "Feature", "properties": { "stop_id": "stop_point:SP_1123", "stop_name": "Voivenel", "location_type": 0, "wheelchair_boarding": 1, "route_type": 3.0 }, "geometry": { "type": "Point", "coordinates": [ 1.443766128298695, 43.635255000588145, 0.0 ] } },
{ "type": "Feature", "properties": { "stop_id": "stop_point:SP_1124", "stop_name": "Malepère", "location_type": 0, "wheelchair_boarding": 1, "route_type": 3.0 }, "geometry": { "type": "Point", "coordinates": [ 1.506151163846262, 43.567600736938388, 0.0 ] } },
{ "type": "Feature", "properties": { "stop_id": "stop_point:SP_1125", "stop_name": "Portet Gare SNCF", "location_type": 0, "wheelchair_boarding": 1, "route_type": 3.0 }, "geometry": { "type": "Point", "coordinates": [ 1.388583915679824, 43.527021075764345, 0.0 ] } },
{ "type": "Feature", "properties": { "stop_id": "stop_point:SP_1127", "stop_name": "Désiré", "location_type": 0, "wheelchair_boarding": 1, "route_type": 3.0 }, "geometry": { "type": "Point", "coordinates": [ 1.403875630406498, 43.521932226508042, 0.0 ] } },
{ "type": "Feature", "properties": { "stop_id": "stop_point:SP_1128", "stop_name": "Favasse", "location_type": 0, "wheelchair_boarding": 1, "route_type": 3.0 }, "geometry": { "type": "Point", "coordinates": [ 1.426691694390705, 43.672280061385806, 0.0 ] } },
{ "type": "Feature", "properties": { "stop_id": "stop_point:SP_1129", "stop_name": "Soupetard", "location_type": 0, "wheelchair_boarding": 1, "route_type": 3.0 }, "geometry": { "type": "Point", "coordinates": [ 1.477186603844267, 43.612237031325812, 0.0 ] } },
{ "type": "Feature", "properties": { "stop_id": "stop_point:SP_1130", "stop_name": "Poste de St-Orens", "location_type": 0, "wheelchair_boarding": 1, "route_type": 3.0 }, "geometry": { "type": "Point", "coordinates": [ 1.531920309714322, 43.554649848710817, 0.0 ] } },
{ "type": "Feature", "properties": { "stop_id": "stop_point:SP_1132", "stop_name": "Fer à Cheval", "location_type": 0, "wheelchair_boarding": 1, "route_type": 0.0 }, "geometry": { "type": "Point", "coordinates": [ 1.435475554859859, 43.592570267409727, 0.0 ] } },
{ "type": "Feature", "properties": { "stop_id": "stop_point:SP_1134", "stop_name": "Séoune", "location_type": 0, "wheelchair_boarding": 1, "route_type": 3.0 }, "geometry": { "type": "Point", "coordinates": [ 1.483065635220373, 43.665785515279154, 0.0 ] } },
{ "type": "Feature", "properties": { "stop_id": "stop_point:SP_1135", "stop_name": "Mont Ventoux", "location_type": 0, "wheelchair_boarding": 1, "route_type": 3.0 }, "geometry": { "type": "Point", "coordinates": [ 1.482630409793828, 43.586336784481674, 0.0 ] } },
{ "type": "Feature", "properties": { "stop_id": "stop_point:SP_1136", "stop_name": "Jules Julien", "location_type": 0, "wheelchair_boarding": 1, "route_type": 3.0 }, "geometry": { "type": "Point", "coordinates": [ 1.45219446739569, 43.573324046908432, 0.0 ] } },
{ "type": "Feature", "properties": { "stop_id": "stop_point:SP_1137", "stop_name": "Carlos Gardel", "location_type": 0, "wheelchair_boarding": 2, "route_type": 3.0 }, "geometry": { "type": "Point", "coordinates": [ 1.393816622253426, 43.614284640674015, 0.0 ] } },
{ "type": "Feature", "properties": { "stop_id": "stop_point:SP_1138", "stop_name": "Canal du Midi", "location_type": 0, "wheelchair_boarding": 1, "route_type": 1.0 }, "geometry": { "type": "Point", "coordinates": [ 1.433588410398463, 43.615464552804184, 0.0 ] } },
{ "type": "Feature", "properties": { "stop_id": "stop_point:SP_1139", "stop_name": "Jolimont", "location_type": 0, "wheelchair_boarding": 1, "route_type": 3.0 }, "geometry": { "type": "Point", "coordinates": [ 1.462343783072628, 43.614587195045885, 0.0 ] } },
{ "type": "Feature", "properties": { "stop_id": "stop_point:SP_114", "stop_name": "Carrière", "location_type": 0, "wheelchair_boarding": 1, "route_type": 3.0 }, "geometry": { "type": "Point", "coordinates": [ 1.567699112158861, 43.510795498122526, 0.0 ] } },
{ "type": "Feature", "properties": { "stop_id": "stop_point:SP_1140", "stop_name": "Trois Cocus", "location_type": 0, "wheelchair_boarding": 1, "route_type": 3.0 }, "geometry": { "type": "Point", "coordinates": [ 1.444193490306642, 43.638867522231955, 0.0 ] } },
{ "type": "Feature", "properties": { "stop_id": "stop_point:SP_1141", "stop_name": "Rangueil", "location_type": 0, "wheelchair_boarding": 1, "route_type": 1.0 }, "geometry": { "type": "Point", "coordinates": [ 1.461778336130365, 43.5748294118711, 0.0 ] } },
{ "type": "Feature", "properties": { "stop_id": "stop_point:SP_1142", "stop_name": "Commerce", "location_type": 0, "wheelchair_boarding": 1, "route_type": 3.0 }, "geometry": { "type": "Point", "coordinates": [ 1.501851288555428, 43.549811523648742, 0.0 ] } },
{ "type": "Feature", "properties": { "stop_id": "stop_point:SP_1143", "stop_name": "Ronsard", "location_type": 0, "wheelchair_boarding": 1, "route_type": 3.0 }, "geometry": { "type": "Point", "coordinates": [ 1.406919450537314, 43.583383992365555, 0.0 ] } },
{ "type": "Feature", "properties": { "stop_id": "stop_point:SP_1144", "stop_name": "Les Violettes", "location_type": 0, "wheelchair_boarding": 2, "route_type": 3.0 }, "geometry": { "type": "Point", "coordinates": [ 1.531721170786442, 43.486739994365905, 0.0 ] } },
{ "type": "Feature", "properties": { "stop_id": "stop_point:SP_1147", "stop_name": "Cordeau", "location_type": 0, "wheelchair_boarding": 2, "route_type": 3.0 }, "geometry": { "type": "Point", "coordinates": [ 1.444790454586584, 43.626023032653215, 0.0 ] } },
{ "type": "Feature", "properties": { "stop_id": "stop_point:SP_1149", "stop_name": "Brombach", "location_type": 0, "wheelchair_boarding": 1, "route_type": 3.0 }, "geometry": { "type": "Point", "coordinates": [ 1.404044940577625, 43.59289869228737, 0.0 ] } },
{ "type": "Feature", "properties": { "stop_id": "stop_point:SP_115", "stop_name": "Palais de Justice", "location_type": 0, "wheelchair_boarding": 1, "route_type": 0.0 }, "geometry": { "type": "Point", "coordinates": [ 1.444063626818418, 43.59269006496114, 0.0 ] } },
{ "type": "Feature", "properties": { "stop_id": "stop_point:SP_1150", "stop_name": "Place Georges Brassens", "location_type": 0, "wheelchair_boarding": 1, "route_type": 0.0 }, "geometry": { "type": "Point", "coordinates": [ 1.375694485089562, 43.64852535278856, 0.0 ] } },
{ "type": "Feature", "properties": { "stop_id": "stop_point:SP_1151", "stop_name": "Guiraudie-Aufève", "location_type": 0, "wheelchair_boarding": 1, "route_type": 3.0 }, "geometry": { "type": "Point", "coordinates": [ 1.525491094062881, 43.538759450943914, 0.0 ] } },
{ "type": "Feature", "properties": { "stop_id": "stop_point:SP_1152", "stop_name": "Soupetard Salonique", "location_type": 0, "wheelchair_boarding": 1, "route_type": 3.0 }, "geometry": { "type": "Point", "coordinates": [ 1.470538487975269, 43.609383143800464, 0.0 ] } },
{ "type": "Feature", "properties": { "stop_id": "stop_point:SP_1153", "stop_name": "Centre de Détention", "location_type": 0, "wheelchair_boarding": 1, "route_type": 3.0 }, "geometry": { "type": "Point", "coordinates": [ 1.32054102248236, 43.482928087043362, 0.0 ] } },
{ "type": "Feature", "properties": { "stop_id": "stop_point:SP_1155", "stop_name": "Bois Joly", "location_type": 0, "wheelchair_boarding": 1, "route_type": 3.0 }, "geometry": { "type": "Point", "coordinates": [ 1.339774475494918, 43.572260880455971, 0.0 ] } },
{ "type": "Feature", "properties": { "stop_id": "stop_point:SP_1156", "stop_name": "Cerbère", "location_type": 0, "wheelchair_boarding": 1, "route_type": 3.0 }, "geometry": { "type": "Point", "coordinates": [ 1.473573104308139, 43.648291573673745, 0.0 ] } },
{ "type": "Feature", "properties": { "stop_id": "stop_point:SP_1159", "stop_name": "Quatre Coins", "location_type": 0, "wheelchair_boarding": 1, "route_type": 3.0 }, "geometry": { "type": "Point", "coordinates": [ 1.512131298290463, 43.684948853965402, 0.0 ] } },
{ "type": "Feature", "properties": { "stop_id": "stop_point:SP_116", "stop_name": "Maison Commune", "location_type": 0, "wheelchair_boarding": 1, "route_type": 3.0 }, "geometry": { "type": "Point", "coordinates": [ 1.430433160474141, 43.557560752827811, 0.0 ] } },
{ "type": "Feature", "properties": { "stop_id": "stop_point:SP_1161", "stop_name": "Glassière", "location_type": 0, "wheelchair_boarding": 1, "route_type": 3.0 }, "geometry": { "type": "Point", "coordinates": [ 1.36342153127599, 43.555801234624511, 0.0 ] } },
{ "type": "Feature", "properties": { "stop_id": "stop_point:SP_1163", "stop_name": "Croix d'Alliez", "location_type": 0, "wheelchair_boarding": 1, "route_type": 3.0 }, "geometry": { "type": "Point", "coordinates": [ 1.30558903863658, 43.66168631172583, 0.0 ] } },
{ "type": "Feature", "properties": { "stop_id": "stop_point:SP_1164", "stop_name": "Le Moulin", "location_type": 0, "wheelchair_boarding": 2, "route_type": 3.0 }, "geometry": { "type": "Point", "coordinates": [ 1.526079357573853, 43.480612264242218, 0.0 ] } },
{ "type": "Feature", "properties": { "stop_id": "stop_point:SP_1165", "stop_name": "Chamois", "location_type": 0, "wheelchair_boarding": 1, "route_type": 3.0 }, "geometry": { "type": "Point", "coordinates": [ 1.444426171203696, 43.639421353582549, 0.0 ] } },
{ "type": "Feature", "properties": { "stop_id": "stop_point:SP_1166", "stop_name": "Canal du Midi", "location_type": 0, "wheelchair_boarding": 2, "route_type": 3.0 }, "geometry": { "type": "Point", "coordinates": [ 1.432952888525558, 43.614737455312998, 0.0 ] } },
{ "type": "Feature", "properties": { "stop_id": "stop_point:SP_1168", "stop_name": "Chêne Vert", "location_type": 0, "wheelchair_boarding": 1, "route_type": 3.0 }, "geometry": { "type": "Point", "coordinates": [ 1.326774464340659, 43.510106792361739, 0.0 ] } },
{ "type": "Feature", "properties": { "stop_id": "stop_point:SP_1169", "stop_name": "Ourmets", "location_type": 0, "wheelchair_boarding": 2, "route_type": 3.0 }, "geometry": { "type": "Point", "coordinates": [ 1.599738022177164, 43.441516892868535, 0.0 ] } },
{ "type": "Feature", "properties": { "stop_id": "stop_point:SP_117", "stop_name": "Gendarmerie", "location_type": 0, "wheelchair_boarding": 2, "route_type": 3.0 }, "geometry": { "type": "Point", "coordinates": [ 1.580576059949774, 43.456349621270022, 0.0 ] } },
{ "type": "Feature", "properties": { "stop_id": "stop_point:SP_1170", "stop_name": "Castanet-Tolosan", "location_type": 0, "wheelchair_boarding": 1, "route_type": 3.0 }, "geometry": { "type": "Point", "coordinates": [ 1.506851907298889, 43.50852183308676, 0.0 ] } },
{ "type": "Feature", "properties": { "stop_id": "stop_point:SP_1171", "stop_name": "Tissié", "location_type": 0, "wheelchair_boarding": 1, "route_type": 3.0 }, "geometry": { "type": "Point", "coordinates": [ 1.393936550684372, 43.593104031672638, 0.0 ] } },
{ "type": "Feature", "properties": { "stop_id": "stop_point:SP_1172", "stop_name": "Maison de Retraite", "location_type": 0, "wheelchair_boarding": 1, "route_type": 3.0 }, "geometry": { "type": "Point", "coordinates": [ 1.29950482762848, 43.563669982641152, 0.0 ] } },
{ "type": "Feature", "properties": { "stop_id": "stop_point:SP_1173", "stop_name": "Cambard", "location_type": 0, "wheelchair_boarding": 1, "route_type": 3.0 }, "geometry": { "type": "Point", "coordinates": [ 1.476463129054827, 43.62936809960258, 0.0 ] } },
{ "type": "Feature", "properties": { "stop_id": "stop_point:SP_1174", "stop_name": "Verdaï", "location_type": 0, "wheelchair_boarding": 1, "route_type": 3.0 }, "geometry": { "type": "Point", "coordinates": [ 1.369830842633005, 43.526242687481719, 0.0 ] } },
{ "type": "Feature", "properties": { "stop_id": "stop_point:SP_1175", "stop_name": "La Vache", "location_type": 0, "wheelchair_boarding": 2, "route_type": 3.0 }, "geometry": { "type": "Point", "coordinates": [ 1.435074200059644, 43.633706044861228, 0.0 ] } },
{ "type": "Feature", "properties": { "stop_id": "stop_point:SP_1176", "stop_name": "Victor Hugo", "location_type": 0, "wheelchair_boarding": 1, "route_type": 3.0 }, "geometry": { "type": "Point", "coordinates": [ 1.318019396370438, 43.499894130373541, 0.0 ] } },
{ "type": "Feature", "properties": { "stop_id": "stop_point:SP_1178", "stop_name": "Vitarelles", "location_type": 0, "wheelchair_boarding": 1, "route_type": 3.0 }, "geometry": { "type": "Point", "coordinates": [ 1.395286548487225, 43.58863502713055, 0.0 ] } },
{ "type": "Feature", "properties": { "stop_id": "stop_point:SP_118", "stop_name": "St-Orens Ctre Cial", "location_type": 0, "wheelchair_boarding": 1, "route_type": 3.0 }, "geometry": { "type": "Point", "coordinates": [ 1.51939770480625, 43.564995470697234, 0.0 ] } },
{ "type": "Feature", "properties": { "stop_id": "stop_point:SP_1181", "stop_name": "Porte du Milieu", "location_type": 0, "wheelchair_boarding": 1, "route_type": 3.0 }, "geometry": { "type": "Point", "coordinates": [ 1.464840206117115, 43.610225416532671, 0.0 ] } },
{ "type": "Feature", "properties": { "stop_id": "stop_point:SP_1182", "stop_name": "Ctre Cial Purpan Sud", "location_type": 0, "wheelchair_boarding": 1, "route_type": 3.0 }, "geometry": { "type": "Point", "coordinates": [ 1.393326221370221, 43.607955039483137, 0.0 ] } },
{ "type": "Feature", "properties": { "stop_id": "stop_point:SP_1185", "stop_name": "Barrière de Croix-Daurade", "location_type": 0, "wheelchair_boarding": 1, "route_type": 3.0 }, "geometry": { "type": "Point", "coordinates": [ 1.458905056090227, 43.625485931804882, 0.0 ] } },
{ "type": "Feature", "properties": { "stop_id": "stop_point:SP_1186", "stop_name": "Tibaous", "location_type": 0, "wheelchair_boarding": 2, "route_type": 3.0 }, "geometry": { "type": "Point", "coordinates": [ 1.38589655764131, 43.550958970996611, 0.0 ] } },
{ "type": "Feature", "properties": { "stop_id": "stop_point:SP_1187", "stop_name": "Ancely", "location_type": 0, "wheelchair_boarding": 1, "route_type": 0.0 }, "geometry": { "type": "Point", "coordinates": [ 1.396855966600031, 43.618210395483182, 0.0 ] } },
{ "type": "Feature", "properties": { "stop_id": "stop_point:SP_1188", "stop_name": "Croix de Pierre", "location_type": 0, "wheelchair_boarding": 1, "route_type": 3.0 }, "geometry": { "type": "Point", "coordinates": [ 1.427753059256388, 43.584306350979077, 0.0 ] } },
{ "type": "Feature", "properties": { "stop_id": "stop_point:SP_119", "stop_name": "Les Vitarelles", "location_type": 0, "wheelchair_boarding": 2, "route_type": 3.0 }, "geometry": { "type": "Point", "coordinates": [ 1.391392736674634, 43.709496645844659, 0.0 ] } },
{ "type": "Feature", "properties": { "stop_id": "stop_point:SP_1190", "stop_name": "Egalité", "location_type": 0, "wheelchair_boarding": 1, "route_type": 3.0 }, "geometry": { "type": "Point", "coordinates": [ 1.420524929900707, 43.692047229723627, 0.0 ] } },
{ "type": "Feature", "properties": { "stop_id": "stop_point:SP_1191", "stop_name": "Boudeville", "location_type": 0, "wheelchair_boarding": 2, "route_type": 3.0 }, "geometry": { "type": "Point", "coordinates": [ 1.3942579005874, 43.547888166814062, 0.0 ] } },
{ "type": "Feature", "properties": { "stop_id": "stop_point:SP_1192", "stop_name": "Mairie Launaguet", "location_type": 0, "wheelchair_boarding": 2, "route_type": 3.0 }, "geometry": { "type": "Point", "coordinates": [ 1.455716828835809, 43.673918898830713, 0.0 ] } },
{ "type": "Feature", "properties": { "stop_id": "stop_point:SP_1194", "stop_name": "Granaillet", "location_type": 0, "wheelchair_boarding": 2, "route_type": 3.0 }, "geometry": { "type": "Point", "coordinates": [ 1.525925225564272, 43.490694241333223, 0.0 ] } },
{ "type": "Feature", "properties": { "stop_id": "stop_point:SP_1196", "stop_name": "La Tour", "location_type": 0, "wheelchair_boarding": 2, "route_type": 3.0 }, "geometry": { "type": "Point", "coordinates": [ 1.506474079149027, 43.462381173582727, 0.0 ] } },
{ "type": "Feature", "properties": { "stop_id": "stop_point:SP_1197", "stop_name": "Fenouillet Ctre Cial - Entrée Sud", "location_type": 0, "wheelchair_boarding": 1, "route_type": 3.0 }, "geometry": { "type": "Point", "coordinates": [ 1.404032557095825, 43.68726260144291, 0.0 ] } },
{ "type": "Feature", "properties": { "stop_id": "stop_point:SP_1198", "stop_name": "Arènes Romaines", "location_type": 0, "wheelchair_boarding": 1, "route_type": 3.0 }, "geometry": { "type": "Point", "coordinates": [ 1.397102319952505, 43.613544707714262, 0.0 ] } },
{ "type": "Feature", "properties": { "stop_id": "stop_point:SP_12", "stop_name": "La Serre Beauregard", "location_type": 0, "wheelchair_boarding": 2, "route_type": 3.0 }, "geometry": { "type": "Point", "coordinates": [ 1.500034984556637, 43.476603483242037, 0.0 ] } },
{ "type": "Feature", "properties": { "stop_id": "stop_point:SP_120", "stop_name": "Occitanie", "location_type": 0, "wheelchair_boarding": 2, "route_type": 3.0 }, "geometry": { "type": "Point", "coordinates": [ 1.531154319448184, 43.529409490904051, 0.0 ] } },
{ "type": "Feature", "properties": { "stop_id": "stop_point:SP_1202", "stop_name": "Cimetière Montberon", "location_type": 0, "wheelchair_boarding": 2, "route_type": 3.0 }, "geometry": { "type": "Point", "coordinates": [ 1.47666206815443, 43.712924833105312, 0.0 ] } },
{ "type": "Feature", "properties": { "stop_id": "stop_point:SP_1203", "stop_name": "Narrade", "location_type": 0, "wheelchair_boarding": 1, "route_type": 3.0 }, "geometry": { "type": "Point", "coordinates": [ 1.457324025063888, 43.551637790913318, 0.0 ] } },
{ "type": "Feature", "properties": { "stop_id": "stop_point:SP_1204", "stop_name": "Cité du Parc", "location_type": 0, "wheelchair_boarding": 1, "route_type": 3.0 }, "geometry": { "type": "Point", "coordinates": [ 1.407711407312242, 43.568382000158905, 0.0 ] } },
{ "type": "Feature", "properties": { "stop_id": "stop_point:SP_1206", "stop_name": "Mont Ventoux", "location_type": 0, "wheelchair_boarding": 1, "route_type": 3.0 }, "geometry": { "type": "Point", "coordinates": [ 1.481791533046769, 43.586865858268233, 0.0 ] } },
{ "type": "Feature", "properties": { "stop_id": "stop_point:SP_1207", "stop_name": "Déodat de Séverac", "location_type": 0, "wheelchair_boarding": 1, "route_type": 3.0 }, "geometry": { "type": "Point", "coordinates": [ 1.422552911659246, 43.589751732681172, 0.0 ] } },
{ "type": "Feature", "properties": { "stop_id": "stop_point:SP_1208", "stop_name": "Mistral", "location_type": 0, "wheelchair_boarding": 1, "route_type": 3.0 }, "geometry": { "type": "Point", "coordinates": [ 1.532974324432394, 43.648688150096909, 0.0 ] } },
{ "type": "Feature", "properties": { "stop_id": "stop_point:SP_1210", "stop_name": "Croix de Pierre", "location_type": 0, "wheelchair_boarding": 1, "route_type": 3.0 }, "geometry": { "type": "Point", "coordinates": [ 1.427631013017413, 43.585680552435861, 0.0 ] } },
{ "type": "Feature", "properties": { "stop_id": "stop_point:SP_1211", "stop_name": "Beau Séjour", "location_type": 0, "wheelchair_boarding": 2, "route_type": 3.0 }, "geometry": { "type": "Point", "coordinates": [ 1.531202739117084, 43.534559922750255, 0.0 ] } },
{ "type": "Feature", "properties": { "stop_id": "stop_point:SP_1212", "stop_name": "Bergeron", "location_type": 0, "wheelchair_boarding": 2, "route_type": 3.0 }, "geometry": { "type": "Point", "coordinates": [ 1.406361826087682, 43.699070185150589, 0.0 ] } },
{ "type": "Feature", "properties": { "stop_id": "stop_point:SP_1213", "stop_name": "Saouzelong", "location_type": 0, "wheelchair_boarding": 1, "route_type": 3.0 }, "geometry": { "type": "Point", "coordinates": [ 1.459518880253059, 43.579544343074694, 0.0 ] } },
{ "type": "Feature", "properties": { "stop_id": "stop_point:SP_1215", "stop_name": "Jules Verne", "location_type": 0, "wheelchair_boarding": 1, "route_type": 3.0 }, "geometry": { "type": "Point", "coordinates": [ 1.422365684214701, 43.686962342328222, 0.0 ] } },
{ "type": "Feature", "properties": { "stop_id": "stop_point:SP_1217", "stop_name": "Déodat de Séverac", "location_type": 0, "wheelchair_boarding": 1, "route_type": 0.0 }, "geometry": { "type": "Point", "coordinates": [ 1.421633627206998, 43.589704404973091, 0.0 ] } },
{ "type": "Feature", "properties": { "stop_id": "stop_point:SP_1218", "stop_name": "Eglise Pouvourville", "location_type": 0, "wheelchair_boarding": 1, "route_type": 3.0 }, "geometry": { "type": "Point", "coordinates": [ 1.454375058715515, 43.548383406278994, 0.0 ] } },
{ "type": "Feature", "properties": { "stop_id": "stop_point:SP_1220", "stop_name": "Troubadours", "location_type": 0, "wheelchair_boarding": 1, "route_type": 3.0 }, "geometry": { "type": "Point", "coordinates": [ 1.360098743839678, 43.554252223221837, 0.0 ] } },
{ "type": "Feature", "properties": { "stop_id": "stop_point:SP_1222", "stop_name": "Myosotis", "location_type": 0, "wheelchair_boarding": 1, "route_type": 3.0 }, "geometry": { "type": "Point", "coordinates": [ 1.476263168965953, 43.658041632901089, 0.0 ] } },
{ "type": "Feature", "properties": { "stop_id": "stop_point:SP_1223", "stop_name": "La Seillonne", "location_type": 0, "wheelchair_boarding": 1, "route_type": 3.0 }, "geometry": { "type": "Point", "coordinates": [ 1.52935788873293, 43.625828174006685, 0.0 ] } },
{ "type": "Feature", "properties": { "stop_id": "stop_point:SP_1224", "stop_name": "Roseraie", "location_type": 0, "wheelchair_boarding": 1, "route_type": 1.0 }, "geometry": { "type": "Point", "coordinates": [ 1.469554863577941, 43.619731019586077, 0.0 ] } },
{ "type": "Feature", "properties": { "stop_id": "stop_point:SP_1225", "stop_name": "Coteaux", "location_type": 0, "wheelchair_boarding": 1, "route_type": 3.0 }, "geometry": { "type": "Point", "coordinates": [ 1.452387965643974, 43.567298089352363, 0.0 ] } },
{ "type": "Feature", "properties": { "stop_id": "stop_point:SP_1226", "stop_name": "Av. de Toulouse", "location_type": 0, "wheelchair_boarding": 1, "route_type": 3.0 }, "geometry": { "type": "Point", "coordinates": [ 1.523122220956539, 43.560382125553389, 0.0 ] } },
{ "type": "Feature", "properties": { "stop_id": "stop_point:SP_1227", "stop_name": "Argoulets", "location_type": 0, "wheelchair_boarding": 1, "route_type": 3.0 }, "geometry": { "type": "Point", "coordinates": [ 1.477215889022858, 43.624580426075234, 0.0 ] } },
{ "type": "Feature", "properties": { "stop_id": "stop_point:SP_1228", "stop_name": "Eglise Minimes", "location_type": 0, "wheelchair_boarding": 1, "route_type": 3.0 }, "geometry": { "type": "Point", "coordinates": [ 1.436530479964596, 43.618125454780895, 0.0 ] } },
{ "type": "Feature", "properties": { "stop_id": "stop_point:SP_1229", "stop_name": "Tolstoï", "location_type": 0, "wheelchair_boarding": 1, "route_type": 3.0 }, "geometry": { "type": "Point", "coordinates": [ 1.44326866329618, 43.574826268659997, 0.0 ] } },
{ "type": "Feature", "properties": { "stop_id": "stop_point:SP_123", "stop_name": "Roche", "location_type": 0, "wheelchair_boarding": 1, "route_type": 3.0 }, "geometry": { "type": "Point", "coordinates": [ 1.471005030479076, 43.708830111752462, 0.0 ] } },
{ "type": "Feature", "properties": { "stop_id": "stop_point:SP_1230", "stop_name": "Collège André Malraux", "location_type": 0, "wheelchair_boarding": 1, "route_type": 3.0 }, "geometry": { "type": "Point", "coordinates": [ 1.479566543042934, 43.549111163275931, 0.0 ] } },
{ "type": "Feature", "properties": { "stop_id": "stop_point:SP_1232", "stop_name": "Rue du 14 juillet", "location_type": 0, "wheelchair_boarding": 1, "route_type": 3.0 }, "geometry": { "type": "Point", "coordinates": [ 1.41484633891275, 43.590362214927517, 0.0 ] } },
{ "type": "Feature", "properties": { "stop_id": "stop_point:SP_1233", "stop_name": "Dulong", "location_type": 0, "wheelchair_boarding": 1, "route_type": 3.0 }, "geometry": { "type": "Point", "coordinates": [ 1.430333325793568, 43.63633788951352, 0.0 ] } },
{ "type": "Feature", "properties": { "stop_id": "stop_point:SP_1234", "stop_name": "Massebiau", "location_type": 0, "wheelchair_boarding": 1, "route_type": 3.0 }, "geometry": { "type": "Point", "coordinates": [ 1.482403566636845, 43.682281365975271, 0.0 ] } },
{ "type": "Feature", "properties": { "stop_id": "stop_point:SP_1235", "stop_name": "Salas", "location_type": 0, "wheelchair_boarding": 1, "route_type": 3.0 }, "geometry": { "type": "Point", "coordinates": [ 1.461447729342896, 43.541729543175897, 0.0 ] } },
{ "type": "Feature", "properties": { "stop_id": "stop_point:SP_1238", "stop_name": "ZI La Glacière", "location_type": 0, "wheelchair_boarding": 1, "route_type": 3.0 }, "geometry": { "type": "Point", "coordinates": [ 1.416360027726967, 43.643193441050883, 0.0 ] } },
{ "type": "Feature", "properties": { "stop_id": "stop_point:SP_1239", "stop_name": "Altigone", "location_type": 0, "wheelchair_boarding": 1, "route_type": 3.0 }, "geometry": { "type": "Point", "coordinates": [ 1.529430682373108, 43.553908620477628, 0.0 ] } },
{ "type": "Feature", "properties": { "stop_id": "stop_point:SP_124", "stop_name": "Silvio Trentin", "location_type": 0, "wheelchair_boarding": 1, "route_type": 3.0 }, "geometry": { "type": "Point", "coordinates": [ 1.428802437998355, 43.62428551750677, 0.0 ] } },
{ "type": "Feature", "properties": { "stop_id": "stop_point:SP_1240", "stop_name": "Deltour", "location_type": 0, "wheelchair_boarding": 1, "route_type": 3.0 }, "geometry": { "type": "Point", "coordinates": [ 1.471716642721098, 43.600865159395688, 0.0 ] } },
{ "type": "Feature", "properties": { "stop_id": "stop_point:SP_1241", "stop_name": "Gers - Lartet", "location_type": 0, "wheelchair_boarding": 1, "route_type": 3.0 }, "geometry": { "type": "Point", "coordinates": [ 1.47741268353408, 43.584418660019757, 0.0 ] } },
{ "type": "Feature", "properties": { "stop_id": "stop_point:SP_1242", "stop_name": "Mairie Castelginest", "location_type": 0, "wheelchair_boarding": 1, "route_type": 3.0 }, "geometry": { "type": "Point", "coordinates": [ 1.428073904234851, 43.693864635133679, 0.0 ] } },
{ "type": "Feature", "properties": { "stop_id": "stop_point:SP_1244", "stop_name": "Place Bouillière", "location_type": 0, "wheelchair_boarding": 1, "route_type": 3.0 }, "geometry": { "type": "Point", "coordinates": [ 1.392991065806527, 43.567643228355514, 0.0 ] } },
{ "type": "Feature", "properties": { "stop_id": "stop_point:SP_1245", "stop_name": "Oratoire", "location_type": 0, "wheelchair_boarding": 1, "route_type": 3.0 }, "geometry": { "type": "Point", "coordinates": [ 1.349386480340962, 43.609926779309419, 0.0 ] } },
{ "type": "Feature", "properties": { "stop_id": "stop_point:SP_1247", "stop_name": "Amandiers", "location_type": 0, "wheelchair_boarding": 1, "route_type": 3.0 }, "geometry": { "type": "Point", "coordinates": [ 1.37037504839506, 43.666650163563332, 0.0 ] } },
{ "type": "Feature", "properties": { "stop_id": "stop_point:SP_1248", "stop_name": "Place Bila", "location_type": 0, "wheelchair_boarding": 1, "route_type": 3.0 }, "geometry": { "type": "Point", "coordinates": [ 1.459046951668049, 43.627281225503985, 0.0 ] } },
{ "type": "Feature", "properties": { "stop_id": "stop_point:SP_1249", "stop_name": "Basso Cambo", "location_type": 0, "wheelchair_boarding": 1, "route_type": 3.0 }, "geometry": { "type": "Point", "coordinates": [ 1.392094940070211, 43.570626723750017, 0.0 ] } },
{ "type": "Feature", "properties": { "stop_id": "stop_point:SP_125", "stop_name": "Bois", "location_type": 0, "wheelchair_boarding": 1, "route_type": 3.0 }, "geometry": { "type": "Point", "coordinates": [ 1.417742203107801, 43.730771998829056, 0.0 ] } },
{ "type": "Feature", "properties": { "stop_id": "stop_point:SP_1250", "stop_name": "Clotasses", "location_type": 0, "wheelchair_boarding": 1, "route_type": 3.0 }, "geometry": { "type": "Point", "coordinates": [ 1.468316422906556, 43.554638880562266, 0.0 ] } },
{ "type": "Feature", "properties": { "stop_id": "stop_point:SP_1251", "stop_name": "Buissonnets", "location_type": 0, "wheelchair_boarding": 1, "route_type": 3.0 }, "geometry": { "type": "Point", "coordinates": [ 1.473072698253381, 43.582696056312592, 0.0 ] } },
{ "type": "Feature", "properties": { "stop_id": "stop_point:SP_1252", "stop_name": "Coteaux", "location_type": 0, "wheelchair_boarding": 1, "route_type": 3.0 }, "geometry": { "type": "Point", "coordinates": [ 1.476125293702598, 43.532450529881991, 0.0 ] } },
{ "type": "Feature", "properties": { "stop_id": "stop_point:SP_1253", "stop_name": "Sausse", "location_type": 0, "wheelchair_boarding": 1, "route_type": 3.0 }, "geometry": { "type": "Point", "coordinates": [ 1.514385759455198, 43.65130076498037, 0.0 ] } },
{ "type": "Feature", "properties": { "stop_id": "stop_point:SP_1254", "stop_name": "Pins", "location_type": 0, "wheelchair_boarding": 1, "route_type": 3.0 }, "geometry": { "type": "Point", "coordinates": [ 1.54730247634635, 43.54010669842048, 0.0 ] } },
{ "type": "Feature", "properties": { "stop_id": "stop_point:SP_1256", "stop_name": "Récollets Daste", "location_type": 0, "wheelchair_boarding": 1, "route_type": 3.0 }, "geometry": { "type": "Point", "coordinates": [ 1.442698657698048, 43.58359239261857, 0.0 ] } },
{ "type": "Feature", "properties": { "stop_id": "stop_point:SP_126", "stop_name": "Maison de Retraite", "location_type": 0, "wheelchair_boarding": 1, "route_type": 3.0 }, "geometry": { "type": "Point", "coordinates": [ 1.184649524886975, 43.5185568587655, 0.0 ] } },
{ "type": "Feature", "properties": { "stop_id": "stop_point:SP_1261", "stop_name": "Terroir 2", "location_type": 0, "wheelchair_boarding": 1, "route_type": 3.0 }, "geometry": { "type": "Point", "coordinates": [ 1.401304951364169, 43.702951323009891, 0.0 ] } },
{ "type": "Feature", "properties": { "stop_id": "stop_point:SP_1262", "stop_name": "Compans-Caffarelli", "location_type": 0, "wheelchair_boarding": 1, "route_type": 3.0 }, "geometry": { "type": "Point", "coordinates": [ 1.43537669658766, 43.610417079504423, 0.0 ] } },
{ "type": "Feature", "properties": { "stop_id": "stop_point:SP_1264", "stop_name": "Château", "location_type": 0, "wheelchair_boarding": 2, "route_type": 3.0 }, "geometry": { "type": "Point", "coordinates": [ 1.526422548729835, 43.668436245560883, 0.0 ] } },
{ "type": "Feature", "properties": { "stop_id": "stop_point:SP_1267", "stop_name": "F. Mitterrand", "location_type": 0, "wheelchair_boarding": 1, "route_type": 3.0 }, "geometry": { "type": "Point", "coordinates": [ 1.323104936570098, 43.524344596397917, 0.0 ] } },
{ "type": "Feature", "properties": { "stop_id": "stop_point:SP_1268", "stop_name": "Aéroconstellation", "location_type": 0, "wheelchair_boarding": 1, "route_type": 0.0 }, "geometry": { "type": "Point", "coordinates": [ 1.362661724459536, 43.663460913657119, 0.0 ] } },
{ "type": "Feature", "properties": { "stop_id": "stop_point:SP_1269", "stop_name": "Beau Soleil", "location_type": 0, "wheelchair_boarding": 1, "route_type": 3.0 }, "geometry": { "type": "Point", "coordinates": [ 1.374084999458096, 43.670168290528693, 0.0 ] } },
{ "type": "Feature", "properties": { "stop_id": "stop_point:SP_127", "stop_name": "A. Bernard", "location_type": 0, "wheelchair_boarding": 1, "route_type": 3.0 }, "geometry": { "type": "Point", "coordinates": [ 1.438068655914491, 43.611430928862561, 0.0 ] } },
{ "type": "Feature", "properties": { "stop_id": "stop_point:SP_1270", "stop_name": "Le Grand", "location_type": 0, "wheelchair_boarding": 1, "route_type": 3.0 }, "geometry": { "type": "Point", "coordinates": [ 1.45127694328171, 43.716170347237671, 0.0 ] } },
{ "type": "Feature", "properties": { "stop_id": "stop_point:SP_1271", "stop_name": "Servanty Airbus", "location_type": 0, "wheelchair_boarding": 1, "route_type": 0.0 }, "geometry": { "type": "Point", "coordinates": [ 1.393536234251723, 43.625482147516351, 0.0 ] } },
{ "type": "Feature", "properties": { "stop_id": "stop_point:SP_1272", "stop_name": "Jaffary", "location_type": 0, "wheelchair_boarding": 1, "route_type": 3.0 }, "geometry": { "type": "Point", "coordinates": [ 1.461955935537907, 43.631005441231665, 0.0 ] } },
{ "type": "Feature", "properties": { "stop_id": "stop_point:SP_1274", "stop_name": "Cheverry", "location_type": 0, "wheelchair_boarding": 1, "route_type": 3.0 }, "geometry": { "type": "Point", "coordinates": [ 1.406428167735526, 43.561940722275949, 0.0 ] } },
{ "type": "Feature", "properties": { "stop_id": "stop_point:SP_1276", "stop_name": "Arts", "location_type": 0, "wheelchair_boarding": 1, "route_type": 3.0 }, "geometry": { "type": "Point", "coordinates": [ 1.504314640426602, 43.553590260117453, 0.0 ] } },
{ "type": "Feature", "properties": { "stop_id": "stop_point:SP_1278", "stop_name": "Iliade", "location_type": 0, "wheelchair_boarding": 1, "route_type": 3.0 }, "geometry": { "type": "Point", "coordinates": [ 1.48538246768085, 43.596065049101441, 0.0 ] } },
{ "type": "Feature", "properties": { "stop_id": "stop_point:SP_1279", "stop_name": "Cimetière Cornebarrieu", "location_type": 0, "wheelchair_boarding": 1, "route_type": 3.0 }, "geometry": { "type": "Point", "coordinates": [ 1.330758247247752, 43.640543688921511, 0.0 ] } },
{ "type": "Feature", "properties": { "stop_id": "stop_point:SP_1280", "stop_name": "L'écrin", "location_type": 0, "wheelchair_boarding": 2, "route_type": 3.0 }, "geometry": { "type": "Point", "coordinates": [ 1.51604918674249, 43.551154450567182, 0.0 ] } },
{ "type": "Feature", "properties": { "stop_id": "stop_point:SP_1281", "stop_name": "Lauragais", "location_type": 0, "wheelchair_boarding": 1, "route_type": 3.0 }, "geometry": { "type": "Point", "coordinates": [ 1.533947753789778, 43.586594532294377, 0.0 ] } },
{ "type": "Feature", "properties": { "stop_id": "stop_point:SP_1282", "stop_name": "Labastidole", "location_type": 0, "wheelchair_boarding": 1, "route_type": 3.0 }, "geometry": { "type": "Point", "coordinates": [ 1.46404124758338, 43.704188823098399, 0.0 ] } },
{ "type": "Feature", "properties": { "stop_id": "stop_point:SP_1287", "stop_name": "Maupassant", "location_type": 0, "wheelchair_boarding": 1, "route_type": 3.0 }, "geometry": { "type": "Point", "coordinates": [ 1.464811040484656, 43.643944438354453, 0.0 ] } },
{ "type": "Feature", "properties": { "stop_id": "stop_point:SP_1288", "stop_name": "Le Pas du Merle", "location_type": 0, "wheelchair_boarding": 2, "route_type": 3.0 }, "geometry": { "type": "Point", "coordinates": [ 1.659728284427532, 43.484357455304888, 0.0 ] } },
{ "type": "Feature", "properties": { "stop_id": "stop_point:SP_1289", "stop_name": "Amidonniers", "location_type": 0, "wheelchair_boarding": 1, "route_type": 3.0 }, "geometry": { "type": "Point", "coordinates": [ 1.428108685465896, 43.606083968896286, 0.0 ] } },
{ "type": "Feature", "properties": { "stop_id": "stop_point:SP_129", "stop_name": "AFPA", "location_type": 0, "wheelchair_boarding": 1, "route_type": 3.0 }, "geometry": { "type": "Point", "coordinates": [ 1.498303568871958, 43.558725401730385, 0.0 ] } },
{ "type": "Feature", "properties": { "stop_id": "stop_point:SP_1291", "stop_name": "Carcassonne", "location_type": 0, "wheelchair_boarding": 1, "route_type": 3.0 }, "geometry": { "type": "Point", "coordinates": [ 1.48416410628148, 43.59996631311671, 0.0 ] } },
{ "type": "Feature", "properties": { "stop_id": "stop_point:SP_1293", "stop_name": "Aérostiers", "location_type": 0, "wheelchair_boarding": 2, "route_type": 3.0 }, "geometry": { "type": "Point", "coordinates": [ 1.489718697093245, 43.60913150600291, 0.0 ] } },
{ "type": "Feature", "properties": { "stop_id": "stop_point:SP_1294", "stop_name": "Le Grand Marché", "location_type": 0, "wheelchair_boarding": 1, "route_type": 3.0 }, "geometry": { "type": "Point", "coordinates": [ 1.429836624928115, 43.638309464373521, 0.0 ] } },
{ "type": "Feature", "properties": { "stop_id": "stop_point:SP_1295", "stop_name": "Clos Fleuri", "location_type": 0, "wheelchair_boarding": 1, "route_type": 3.0 }, "geometry": { "type": "Point", "coordinates": [ 1.500717713997167, 43.598283527473107, 0.0 ] } },
{ "type": "Feature", "properties": { "stop_id": "stop_point:SP_1296", "stop_name": "Atlanta", "location_type": 0, "wheelchair_boarding": 1, "route_type": 3.0 }, "geometry": { "type": "Point", "coordinates": [ 1.467836472320005, 43.643275743018215, 0.0 ] } },
{ "type": "Feature", "properties": { "stop_id": "stop_point:SP_1298", "stop_name": "Place Bouillière", "location_type": 0, "wheelchair_boarding": 1, "route_type": 3.0 }, "geometry": { "type": "Point", "coordinates": [ 1.393219792909306, 43.567266816457952, 0.0 ] } },
{ "type": "Feature", "properties": { "stop_id": "stop_point:SP_1299", "stop_name": "Ecole St-Jean", "location_type": 0, "wheelchair_boarding": 1, "route_type": 3.0 }, "geometry": { "type": "Point", "coordinates": [ 1.500104336431143, 43.668546936849843, 0.0 ] } },
{ "type": "Feature", "properties": { "stop_id": "stop_point:SP_13", "stop_name": "Bordettes", "location_type": 0, "wheelchair_boarding": 1, "route_type": 3.0 }, "geometry": { "type": "Point", "coordinates": [ 1.477829889467941, 43.679945778480828, 0.0 ] } },
{ "type": "Feature", "properties": { "stop_id": "stop_point:SP_130", "stop_name": "Fonsegrives Entiore", "location_type": 0, "wheelchair_boarding": 1, "route_type": 3.0 }, "geometry": { "type": "Point", "coordinates": [ 1.510441104928492, 43.579685958649293, 0.0 ] } },
{ "type": "Feature", "properties": { "stop_id": "stop_point:SP_1300", "stop_name": "Busquet", "location_type": 0, "wheelchair_boarding": 2, "route_type": 3.0 }, "geometry": { "type": "Point", "coordinates": [ 1.520571557605883, 43.621826988047786, 0.0 ] } },
{ "type": "Feature", "properties": { "stop_id": "stop_point:SP_1301", "stop_name": "Cayras", "location_type": 0, "wheelchair_boarding": 1, "route_type": 3.0 }, "geometry": { "type": "Point", "coordinates": [ 1.513442986077246, 43.569234899045043, 0.0 ] } },
{ "type": "Feature", "properties": { "stop_id": "stop_point:SP_1302", "stop_name": "Bicentenaire", "location_type": 0, "wheelchair_boarding": 1, "route_type": 3.0 }, "geometry": { "type": "Point", "coordinates": [ 1.496489942302558, 43.620821833218493, 0.0 ] } },
{ "type": "Feature", "properties": { "stop_id": "stop_point:SP_1303", "stop_name": "Atlanta", "location_type": 0, "wheelchair_boarding": 1, "route_type": 3.0 }, "geometry": { "type": "Point", "coordinates": [ 1.467634392340117, 43.642484904070066, 0.0 ] } },
{ "type": "Feature", "properties": { "stop_id": "stop_point:SP_1304", "stop_name": "Bordenoire", "location_type": 0, "wheelchair_boarding": 1, "route_type": 3.0 }, "geometry": { "type": "Point", "coordinates": [ 1.347626936837086, 43.560714624650565, 0.0 ] } },
{ "type": "Feature", "properties": { "stop_id": "stop_point:SP_1305", "stop_name": "Mont Pin", "location_type": 0, "wheelchair_boarding": 1, "route_type": 3.0 }, "geometry": { "type": "Point", "coordinates": [ 1.521777501374245, 43.638916299993454, 0.0 ] } },
{ "type": "Feature", "properties": { "stop_id": "stop_point:SP_1306", "stop_name": "Pont de Ginestous", "location_type": 0, "wheelchair_boarding": 2, "route_type": 3.0 }, "geometry": { "type": "Point", "coordinates": [ 1.422659913865439, 43.63318027994378, 0.0 ] } },
{ "type": "Feature", "properties": { "stop_id": "stop_point:SP_1307", "stop_name": "Mairie Castanet", "location_type": 0, "wheelchair_boarding": 1, "route_type": 3.0 }, "geometry": { "type": "Point", "coordinates": [ 1.497872623537244, 43.517148097668581, 0.0 ] } },
{ "type": "Feature", "properties": { "stop_id": "stop_point:SP_1308", "stop_name": "Silvio Trentin", "location_type": 0, "wheelchair_boarding": 1, "route_type": 3.0 }, "geometry": { "type": "Point", "coordinates": [ 1.428263571422395, 43.624168633669896, 0.0 ] } },
{ "type": "Feature", "properties": { "stop_id": "stop_point:SP_1309", "stop_name": "Tolosane", "location_type": 0, "wheelchair_boarding": 1, "route_type": 3.0 }, "geometry": { "type": "Point", "coordinates": [ 1.510124301524095, 43.545818881209293, 0.0 ] } },
{ "type": "Feature", "properties": { "stop_id": "stop_point:SP_131", "stop_name": "Bascule - Seycheron", "location_type": 0, "wheelchair_boarding": 1, "route_type": 3.0 }, "geometry": { "type": "Point", "coordinates": [ 1.341368460671237, 43.608753950574375, 0.0 ] } },
{ "type": "Feature", "properties": { "stop_id": "stop_point:SP_1311", "stop_name": "Prologue", "location_type": 0, "wheelchair_boarding": 1, "route_type": 3.0 }, "geometry": { "type": "Point", "coordinates": [ 1.507652481408815, 43.548066709328914, 0.0 ] } },
{ "type": "Feature", "properties": { "stop_id": "stop_point:SP_1312", "stop_name": "Campardon", "location_type": 0, "wheelchair_boarding": 1, "route_type": 3.0 }, "geometry": { "type": "Point", "coordinates": [ 1.465438339603158, 43.622009811529338, 0.0 ] } },
{ "type": "Feature", "properties": { "stop_id": "stop_point:SP_1313", "stop_name": "Compans-Caffarelli", "location_type": 0, "wheelchair_boarding": 1, "route_type": 3.0 }, "geometry": { "type": "Point", "coordinates": [ 1.435034503760491, 43.610543662500277, 0.0 ] } },
{ "type": "Feature", "properties": { "stop_id": "stop_point:SP_1315", "stop_name": "François Verdier", "location_type": 0, "wheelchair_boarding": 1, "route_type": 3.0 }, "geometry": { "type": "Point", "coordinates": [ 1.452017857591223, 43.6010697914123, 0.0 ] } },
{ "type": "Feature", "properties": { "stop_id": "stop_point:SP_1316", "stop_name": "Clos St-Martin", "location_type": 0, "wheelchair_boarding": 1, "route_type": 3.0 }, "geometry": { "type": "Point", "coordinates": [ 1.50266862112751, 43.597404257935658, 0.0 ] } },
{ "type": "Feature", "properties": { "stop_id": "stop_point:SP_1317", "stop_name": "Mascard", "location_type": 0, "wheelchair_boarding": 1, "route_type": 3.0 }, "geometry": { "type": "Point", "coordinates": [ 1.47933607040478, 43.599271975161486, 0.0 ] } },
{ "type": "Feature", "properties": { "stop_id": "stop_point:SP_1318", "stop_name": "Puntous", "location_type": 0, "wheelchair_boarding": 1, "route_type": 3.0 }, "geometry": { "type": "Point", "coordinates": [ 1.476940724209953, 43.696929888242423, 0.0 ] } },
{ "type": "Feature", "properties": { "stop_id": "stop_point:SP_1319", "stop_name": "Pelletier Purpan", "location_type": 0, "wheelchair_boarding": 1, "route_type": 3.0 }, "geometry": { "type": "Point", "coordinates": [ 1.395947129476158, 43.606999910792929, 0.0 ] } },
{ "type": "Feature", "properties": { "stop_id": "stop_point:SP_132", "stop_name": "Ecole Gleyze-Vieille", "location_type": 0, "wheelchair_boarding": 1, "route_type": 3.0 }, "geometry": { "type": "Point", "coordinates": [ 1.463872088910295, 43.544467158048505, 0.0 ] } },
{ "type": "Feature", "properties": { "stop_id": "stop_point:SP_1320", "stop_name": "Montcalm", "location_type": 0, "wheelchair_boarding": 1, "route_type": 3.0 }, "geometry": { "type": "Point", "coordinates": [ 1.484408339188842, 43.653418405924306, 0.0 ] } },
{ "type": "Feature", "properties": { "stop_id": "stop_point:SP_1321", "stop_name": "Lebas", "location_type": 0, "wheelchair_boarding": 1, "route_type": 3.0 }, "geometry": { "type": "Point", "coordinates": [ 1.44146994014909, 43.577107003034492, 0.0 ] } },
{ "type": "Feature", "properties": { "stop_id": "stop_point:SP_1323", "stop_name": "Magre", "location_type": 0, "wheelchair_boarding": 1, "route_type": 3.0 }, "geometry": { "type": "Point", "coordinates": [ 1.38344536426177, 43.576019307595423, 0.0 ] } },
{ "type": "Feature", "properties": { "stop_id": "stop_point:SP_1324", "stop_name": "Partanaïs", "location_type": 0, "wheelchair_boarding": 1, "route_type": 3.0 }, "geometry": { "type": "Point", "coordinates": [ 1.530034094374331, 43.560357587761139, 0.0 ] } },
{ "type": "Feature", "properties": { "stop_id": "stop_point:SP_1325", "stop_name": "Zoo Plaisance", "location_type": 0, "wheelchair_boarding": 1, "route_type": 3.0 }, "geometry": { "type": "Point", "coordinates": [ 1.264578423809049, 43.561933044617881, 0.0 ] } },
{ "type": "Feature", "properties": { "stop_id": "stop_point:SP_1330", "stop_name": "Eglise Ramonville", "location_type": 0, "wheelchair_boarding": 1, "route_type": 3.0 }, "geometry": { "type": "Point", "coordinates": [ 1.469506871338677, 43.551118803210059, 0.0 ] } },
{ "type": "Feature", "properties": { "stop_id": "stop_point:SP_1331", "stop_name": "Fillaul", "location_type": 0, "wheelchair_boarding": 1, "route_type": 3.0 }, "geometry": { "type": "Point", "coordinates": [ 1.526544240683416, 43.623551884887135, 0.0 ] } },
{ "type": "Feature", "properties": { "stop_id": "stop_point:SP_1332", "stop_name": "Flotis", "location_type": 0, "wheelchair_boarding": 1, "route_type": 3.0 }, "geometry": { "type": "Point", "coordinates": [ 1.510539034781754, 43.654150562099943, 0.0 ] } },
{ "type": "Feature", "properties": { "stop_id": "stop_point:SP_1333", "stop_name": "Mayrine", "location_type": 0, "wheelchair_boarding": 1, "route_type": 3.0 }, "geometry": { "type": "Point", "coordinates": [ 1.484152738882613, 43.5263251075149, 0.0 ] } },
{ "type": "Feature", "properties": { "stop_id": "stop_point:SP_1334", "stop_name": "Hubert Curien", "location_type": 0, "wheelchair_boarding": 1, "route_type": 3.0 }, "geometry": { "type": "Point", "coordinates": [ 1.427018816241398, 43.557839452682899, 0.0 ] } },
{ "type": "Feature", "properties": { "stop_id": "stop_point:SP_1335", "stop_name": "Alcatel", "location_type": 0, "wheelchair_boarding": 1, "route_type": 3.0 }, "geometry": { "type": "Point", "coordinates": [ 1.393054704013096, 43.550033036177254, 0.0 ] } },
{ "type": "Feature", "properties": { "stop_id": "stop_point:SP_1336", "stop_name": "Empalot", "location_type": 0, "wheelchair_boarding": 1, "route_type": 3.0 }, "geometry": { "type": "Point", "coordinates": [ 1.441917747752027, 43.580087654417305, 0.0 ] } },
{ "type": "Feature", "properties": { "stop_id": "stop_point:SP_1337", "stop_name": "Allègre", "location_type": 0, "wheelchair_boarding": 1, "route_type": 3.0 }, "geometry": { "type": "Point", "coordinates": [ 1.486000897511803, 43.584615133484697, 0.0 ] } },
{ "type": "Feature", "properties": { "stop_id": "stop_point:SP_1339", "stop_name": "Turenne", "location_type": 0, "wheelchair_boarding": 1, "route_type": 3.0 }, "geometry": { "type": "Point", "coordinates": [ 1.414640590911499, 43.600263998594635, 0.0 ] } },
{ "type": "Feature", "properties": { "stop_id": "stop_point:SP_1340", "stop_name": "La Vierge", "location_type": 0, "wheelchair_boarding": 2, "route_type": 3.0 }, "geometry": { "type": "Point", "coordinates": [ 1.620235274995516, 43.504750023373923, 0.0 ] } },
{ "type": "Feature", "properties": { "stop_id": "stop_point:SP_1341", "stop_name": "A320", "location_type": 0, "wheelchair_boarding": 2, "route_type": 3.0 }, "geometry": { "type": "Point", "coordinates": [ 1.358243459170829, 43.609302572996135, 0.0 ] } },
{ "type": "Feature", "properties": { "stop_id": "stop_point:SP_1344", "stop_name": "Cèdres", "location_type": 0, "wheelchair_boarding": 1, "route_type": 3.0 }, "geometry": { "type": "Point", "coordinates": [ 1.478114162890098, 43.659188935154511, 0.0 ] } },
{ "type": "Feature", "properties": { "stop_id": "stop_point:SP_1346", "stop_name": "Molinier", "location_type": 0, "wheelchair_boarding": 1, "route_type": 3.0 }, "geometry": { "type": "Point", "coordinates": [ 1.392428393892075, 43.58417338335309, 0.0 ] } },
{ "type": "Feature", "properties": { "stop_id": "stop_point:SP_1348", "stop_name": "Cimetière Roquettes", "location_type": 0, "wheelchair_boarding": 1, "route_type": 3.0 }, "geometry": { "type": "Point", "coordinates": [ 1.37099408849191, 43.496522657878721, 0.0 ] } },
{ "type": "Feature", "properties": { "stop_id": "stop_point:SP_1349", "stop_name": "Providence", "location_type": 0, "wheelchair_boarding": 1, "route_type": 3.0 }, "geometry": { "type": "Point", "coordinates": [ 1.458363878202945, 43.605347043168294, 0.0 ] } },
{ "type": "Feature", "properties": { "stop_id": "stop_point:SP_135", "stop_name": "Bordelongue", "location_type": 0, "wheelchair_boarding": 1, "route_type": 3.0 }, "geometry": { "type": "Point", "coordinates": [ 1.417793446509255, 43.571534131653806, 0.0 ] } },
{ "type": "Feature", "properties": { "stop_id": "stop_point:SP_1350", "stop_name": "Ticaille", "location_type": 0, "wheelchair_boarding": 1, "route_type": 3.0 }, "geometry": { "type": "Point", "coordinates": [ 1.597580489746574, 43.447173013495046, 0.0 ] } },
{ "type": "Feature", "properties": { "stop_id": "stop_point:SP_1351", "stop_name": "Parc Alalouf", "location_type": 0, "wheelchair_boarding": 1, "route_type": 3.0 }, "geometry": { "type": "Point", "coordinates": [ 1.48571283605588, 43.577730515918198, 0.0 ] } },
{ "type": "Feature", "properties": { "stop_id": "stop_point:SP_1352", "stop_name": "Achiary", "location_type": 0, "wheelchair_boarding": 1, "route_type": 3.0 }, "geometry": { "type": "Point", "coordinates": [ 1.474188044247092, 43.600935240269955, 0.0 ] } },
{ "type": "Feature", "properties": { "stop_id": "stop_point:SP_1353", "stop_name": "Colomiers Airbus", "location_type": 0, "wheelchair_boarding": 2, "route_type": 3.0 }, "geometry": { "type": "Point", "coordinates": [ 1.353221180921935, 43.614819234352211, 0.0 ] } },
{ "type": "Feature", "properties": { "stop_id": "stop_point:SP_1354", "stop_name": "Jean Zay", "location_type": 0, "wheelchair_boarding": 1, "route_type": 3.0 }, "geometry": { "type": "Point", "coordinates": [ 1.447112810417881, 43.64103269968772, 0.0 ] } },
{ "type": "Feature", "properties": { "stop_id": "stop_point:SP_1355", "stop_name": "Vendanges", "location_type": 0, "wheelchair_boarding": 1, "route_type": 3.0 }, "geometry": { "type": "Point", "coordinates": [ 1.431353673909969, 43.679880753499248, 0.0 ] } },
{ "type": "Feature", "properties": { "stop_id": "stop_point:SP_1356", "stop_name": "Payssière", "location_type": 0, "wheelchair_boarding": 1, "route_type": 3.0 }, "geometry": { "type": "Point", "coordinates": [ 1.533512967504908, 43.532450601053327, 0.0 ] } },
{ "type": "Feature", "properties": { "stop_id": "stop_point:SP_1357", "stop_name": "René Valmy", "location_type": 0, "wheelchair_boarding": 1, "route_type": 3.0 }, "geometry": { "type": "Point", "coordinates": [ 1.398991391251546, 43.558758393982238, 0.0 ] } },
{ "type": "Feature", "properties": { "stop_id": "stop_point:SP_1358", "stop_name": "Mairie Beauzelle", "location_type": 0, "wheelchair_boarding": 1, "route_type": 3.0 }, "geometry": { "type": "Point", "coordinates": [ 1.377350325023515, 43.667093353279725, 0.0 ] } },
{ "type": "Feature", "properties": { "stop_id": "stop_point:SP_1359", "stop_name": "Tour Totier", "location_type": 0, "wheelchair_boarding": 1, "route_type": 3.0 }, "geometry": { "type": "Point", "coordinates": [ 1.435305265778639, 43.693861257741602, 0.0 ] } },
{ "type": "Feature", "properties": { "stop_id": "stop_point:SP_136", "stop_name": "Biarritz", "location_type": 0, "wheelchair_boarding": 1, "route_type": 3.0 }, "geometry": { "type": "Point", "coordinates": [ 1.483418669616699, 43.652129696205741, 0.0 ] } },
{ "type": "Feature", "properties": { "stop_id": "stop_point:SP_1361", "stop_name": "Rachou", "location_type": 0, "wheelchair_boarding": 1, "route_type": 3.0 }, "geometry": { "type": "Point", "coordinates": [ 1.452081708219385, 43.586342745436014, 0.0 ] } },
{ "type": "Feature", "properties": { "stop_id": "stop_point:SP_1363", "stop_name": "Bousquet", "location_type": 0, "wheelchair_boarding": 2, "route_type": 3.0 }, "geometry": { "type": "Point", "coordinates": [ 1.517990689939418, 43.544769710398896, 0.0 ] } },
{ "type": "Feature", "properties": { "stop_id": "stop_point:SP_1364", "stop_name": "Mairie Mons", "location_type": 0, "wheelchair_boarding": 1, "route_type": 3.0 }, "geometry": { "type": "Point", "coordinates": [ 1.573140160719215, 43.611593027548089, 0.0 ] } },
{ "type": "Feature", "properties": { "stop_id": "stop_point:SP_1365", "stop_name": "Eglise Escalquens", "location_type": 0, "wheelchair_boarding": 2, "route_type": 3.0 }, "geometry": { "type": "Point", "coordinates": [ 1.561062215270194, 43.517479796123986, 0.0 ] } },
{ "type": "Feature", "properties": { "stop_id": "stop_point:SP_1366", "stop_name": "Mayrine", "location_type": 0, "wheelchair_boarding": 1, "route_type": 3.0 }, "geometry": { "type": "Point", "coordinates": [ 1.484008905780514, 43.526444409885194, 0.0 ] } },
{ "type": "Feature", "properties": { "stop_id": "stop_point:SP_1367", "stop_name": "Pastourelles", "location_type": 0, "wheelchair_boarding": 1, "route_type": 3.0 }, "geometry": { "type": "Point", "coordinates": [ 1.477261389316649, 43.543645170601017, 0.0 ] } },
{ "type": "Feature", "properties": { "stop_id": "stop_point:SP_1368", "stop_name": "Bellières", "location_type": 0, "wheelchair_boarding": 1, "route_type": 3.0 }, "geometry": { "type": "Point", "coordinates": [ 1.526830962832825, 43.553440644842347, 0.0 ] } },
{ "type": "Feature", "properties": { "stop_id": "stop_point:SP_1369", "stop_name": "Lilas", "location_type": 0, "wheelchair_boarding": 1, "route_type": 3.0 }, "geometry": { "type": "Point", "coordinates": [ 1.346925863980844, 43.54140583164483, 0.0 ] } },
{ "type": "Feature", "properties": { "stop_id": "stop_point:SP_1370", "stop_name": "Peyronnette", "location_type": 0, "wheelchair_boarding": 1, "route_type": 3.0 }, "geometry": { "type": "Point", "coordinates": [ 1.421267928896824, 43.685050065122731, 0.0 ] } },
{ "type": "Feature", "properties": { "stop_id": "stop_point:SP_1372", "stop_name": "Châtaigniers", "location_type": 0, "wheelchair_boarding": 1, "route_type": 3.0 }, "geometry": { "type": "Point", "coordinates": [ 1.390387446629548, 43.58630467704716, 0.0 ] } },
{ "type": "Feature", "properties": { "stop_id": "stop_point:SP_1373", "stop_name": "Cerisiers", "location_type": 0, "wheelchair_boarding": 1, "route_type": 3.0 }, "geometry": { "type": "Point", "coordinates": [ 1.444422061585461, 43.642215039935955, 0.0 ] } },
{ "type": "Feature", "properties": { "stop_id": "stop_point:SP_1374", "stop_name": "Frênes", "location_type": 0, "wheelchair_boarding": 1, "route_type": 3.0 }, "geometry": { "type": "Point", "coordinates": [ 1.412692355634427, 43.541165210266485, 0.0 ] } },
{ "type": "Feature", "properties": { "stop_id": "stop_point:SP_1375", "stop_name": "Laurencin", "location_type": 0, "wheelchair_boarding": 1, "route_type": 3.0 }, "geometry": { "type": "Point", "coordinates": [ 1.418110302814583, 43.635352981651096, 0.0 ] } },
{ "type": "Feature", "properties": { "stop_id": "stop_point:SP_1377", "stop_name": "Orbesson", "location_type": 0, "wheelchair_boarding": 1, "route_type": 3.0 }, "geometry": { "type": "Point", "coordinates": [ 1.422201895886434, 43.57723958610508, 0.0 ] } },
{ "type": "Feature", "properties": { "stop_id": "stop_point:SP_1379", "stop_name": "Gymnase", "location_type": 0, "wheelchair_boarding": 1, "route_type": 3.0 }, "geometry": { "type": "Point", "coordinates": [ 1.520591265491574, 43.568141367093389, 0.0 ] } },
{ "type": "Feature", "properties": { "stop_id": "stop_point:SP_1380", "stop_name": "Castelmaurou Mairie", "location_type": 0, "wheelchair_boarding": 2, "route_type": 3.0 }, "geometry": { "type": "Point", "coordinates": [ 1.533063756926707, 43.67738211287098, 0.0 ] } },
{ "type": "Feature", "properties": { "stop_id": "stop_point:SP_1381", "stop_name": "Raisin", "location_type": 0, "wheelchair_boarding": 1, "route_type": 3.0 }, "geometry": { "type": "Point", "coordinates": [ 1.445822419607912, 43.615567832082839, 0.0 ] } },
{ "type": "Feature", "properties": { "stop_id": "stop_point:SP_1382", "stop_name": "Menton", "location_type": 0, "wheelchair_boarding": 1, "route_type": 3.0 }, "geometry": { "type": "Point", "coordinates": [ 1.497571759132471, 43.651573417699531, 0.0 ] } },
{ "type": "Feature", "properties": { "stop_id": "stop_point:SP_1384", "stop_name": "Purpan", "location_type": 0, "wheelchair_boarding": 1, "route_type": 0.0 }, "geometry": { "type": "Point", "coordinates": [ 1.402070731150192, 43.609085347017697, 0.0 ] } },
{ "type": "Feature", "properties": { "stop_id": "stop_point:SP_1385", "stop_name": "Garin", "location_type": 0, "wheelchair_boarding": 2, "route_type": 3.0 }, "geometry": { "type": "Point", "coordinates": [ 1.484253785092121, 43.57972790053411, 0.0 ] } },
{ "type": "Feature", "properties": { "stop_id": "stop_point:SP_1386", "stop_name": "Bergeron", "location_type": 0, "wheelchair_boarding": 1, "route_type": 3.0 }, "geometry": { "type": "Point", "coordinates": [ 1.406551843499895, 43.69896664348029, 0.0 ] } },
{ "type": "Feature", "properties": { "stop_id": "stop_point:SP_1387", "stop_name": "Avenue Muret Marcel Cavaillé", "location_type": 0, "wheelchair_boarding": 1, "route_type": 0.0 }, "geometry": { "type": "Point", "coordinates": [ 1.431773012531723, 43.589290908045761, 0.0 ] } },
{ "type": "Feature", "properties": { "stop_id": "stop_point:SP_1388", "stop_name": "Mazades", "location_type": 0, "wheelchair_boarding": 1, "route_type": 3.0 }, "geometry": { "type": "Point", "coordinates": [ 1.436912364046489, 43.623877791481611, 0.0 ] } },
{ "type": "Feature", "properties": { "stop_id": "stop_point:SP_1389", "stop_name": "Latécoère", "location_type": 0, "wheelchair_boarding": 2, "route_type": 3.0 }, "geometry": { "type": "Point", "coordinates": [ 1.333435160993926, 43.650551711572739, 0.0 ] } },
{ "type": "Feature", "properties": { "stop_id": "stop_point:SP_139", "stop_name": "Assalit", "location_type": 0, "wheelchair_boarding": 1, "route_type": 3.0 }, "geometry": { "type": "Point", "coordinates": [ 1.466531668156255, 43.60703552021188, 0.0 ] } },
{ "type": "Feature", "properties": { "stop_id": "stop_point:SP_1390", "stop_name": "Jasmin", "location_type": 0, "wheelchair_boarding": 1, "route_type": 3.0 }, "geometry": { "type": "Point", "coordinates": [ 1.474519328859829, 43.662666024526914, 0.0 ] } },
{ "type": "Feature", "properties": { "stop_id": "stop_point:SP_1391", "stop_name": "Bastiat", "location_type": 0, "wheelchair_boarding": 1, "route_type": 3.0 }, "geometry": { "type": "Point", "coordinates": [ 1.431299375085072, 43.634033166106633, 0.0 ] } },
{ "type": "Feature", "properties": { "stop_id": "stop_point:SP_1392", "stop_name": "Cinéma Occitane", "location_type": 0, "wheelchair_boarding": 1, "route_type": 3.0 }, "geometry": { "type": "Point", "coordinates": [ 1.512629479383279, 43.539533847976749, 0.0 ] } },
{ "type": "Feature", "properties": { "stop_id": "stop_point:SP_1393", "stop_name": "Belle Fontaine", "location_type": 0, "wheelchair_boarding": 1, "route_type": 3.0 }, "geometry": { "type": "Point", "coordinates": [ 1.517918899355243, 43.641556796514877, 0.0 ] } },
{ "type": "Feature", "properties": { "stop_id": "stop_point:SP_1394", "stop_name": "Mairie Villeneuve Tolosane", "location_type": 0, "wheelchair_boarding": 1, "route_type": 3.0 }, "geometry": { "type": "Point", "coordinates": [ 1.344266726712484, 43.524773975488053, 0.0 ] } },
{ "type": "Feature", "properties": { "stop_id": "stop_point:SP_1395", "stop_name": "Hortensias", "location_type": 0, "wheelchair_boarding": 1, "route_type": 3.0 }, "geometry": { "type": "Point", "coordinates": [ 1.415507433187042, 43.72546275416402, 0.0 ] } },
{ "type": "Feature", "properties": { "stop_id": "stop_point:SP_1396", "stop_name": "Alphonse Daudet", "location_type": 0, "wheelchair_boarding": 1, "route_type": 3.0 }, "geometry": { "type": "Point", "coordinates": [ 1.437733390403164, 43.690568042337802, 0.0 ] } },
{ "type": "Feature", "properties": { "stop_id": "stop_point:SP_1397", "stop_name": "Aubrac", "location_type": 0, "wheelchair_boarding": 1, "route_type": 3.0 }, "geometry": { "type": "Point", "coordinates": [ 1.341602567767008, 43.613559686515231, 0.0 ] } },
{ "type": "Feature", "properties": { "stop_id": "stop_point:SP_1398", "stop_name": "Courtois de Viçose", "location_type": 0, "wheelchair_boarding": 1, "route_type": 3.0 }, "geometry": { "type": "Point", "coordinates": [ 1.422852496259278, 43.569731732379935, 0.0 ] } },
{ "type": "Feature", "properties": { "stop_id": "stop_point:SP_1399", "stop_name": "Piscine St-Orens", "location_type": 0, "wheelchair_boarding": 1, "route_type": 3.0 }, "geometry": { "type": "Point", "coordinates": [ 1.55310398736287, 43.533121328314159, 0.0 ] } },
{ "type": "Feature", "properties": { "stop_id": "stop_point:SP_14", "stop_name": "Cimetière Villeneuve", "location_type": 0, "wheelchair_boarding": 1, "route_type": 3.0 }, "geometry": { "type": "Point", "coordinates": [ 1.369269920367781, 43.524790581285657, 0.0 ] } },
{ "type": "Feature", "properties": { "stop_id": "stop_point:SP_140", "stop_name": "Ch. de Borderouge", "location_type": 0, "wheelchair_boarding": 2, "route_type": 3.0 }, "geometry": { "type": "Point", "coordinates": [ 1.456636473806343, 43.642997344779502, 0.0 ] } },
{ "type": "Feature", "properties": { "stop_id": "stop_point:SP_1400", "stop_name": "Tour Totier", "location_type": 0, "wheelchair_boarding": 2, "route_type": 3.0 }, "geometry": { "type": "Point", "coordinates": [ 1.435794645923661, 43.694016349023954, 0.0 ] } },
{ "type": "Feature", "properties": { "stop_id": "stop_point:SP_1401", "stop_name": "Jardinerie", "location_type": 0, "wheelchair_boarding": 1, "route_type": 3.0 }, "geometry": { "type": "Point", "coordinates": [ 1.369464292874251, 43.60706826887651, 0.0 ] } },
{ "type": "Feature", "properties": { "stop_id": "stop_point:SP_1402", "stop_name": "Surcouf", "location_type": 0, "wheelchair_boarding": 1, "route_type": 3.0 }, "geometry": { "type": "Point", "coordinates": [ 1.327850793594116, 43.517901421687597, 0.0 ] } },
{ "type": "Feature", "properties": { "stop_id": "stop_point:SP_1403", "stop_name": "Angély", "location_type": 0, "wheelchair_boarding": 1, "route_type": 3.0 }, "geometry": { "type": "Point", "coordinates": [ 1.374762429903328, 43.566346352951015, 0.0 ] } },
{ "type": "Feature", "properties": { "stop_id": "stop_point:SP_1405", "stop_name": "Rond-point de l'Espace", "location_type": 0, "wheelchair_boarding": 1, "route_type": 3.0 }, "geometry": { "type": "Point", "coordinates": [ 1.387793818742257, 43.546477049085624, 0.0 ] } },
{ "type": "Feature", "properties": { "stop_id": "stop_point:SP_1406", "stop_name": "Tellier", "location_type": 0, "wheelchair_boarding": 2, "route_type": 3.0 }, "geometry": { "type": "Point", "coordinates": [ 1.412416515012195, 43.585389722776313, 0.0 ] } },
{ "type": "Feature", "properties": { "stop_id": "stop_point:SP_1408", "stop_name": "Cité Scolaire Rive Gauche", "location_type": 0, "wheelchair_boarding": 1, "route_type": 3.0 }, "geometry": { "type": "Point", "coordinates": [ 1.400025583198429, 43.584392293913062, 0.0 ] } },
{ "type": "Feature", "properties": { "stop_id": "stop_point:SP_1409", "stop_name": "Rateau", "location_type": 0, "wheelchair_boarding": 1, "route_type": 3.0 }, "geometry": { "type": "Point", "coordinates": [ 1.426995306653616, 43.625252798807018, 0.0 ] } },
{ "type": "Feature", "properties": { "stop_id": "stop_point:SP_1412", "stop_name": "LAAS", "location_type": 0, "wheelchair_boarding": 1, "route_type": 3.0 }, "geometry": { "type": "Point", "coordinates": [ 1.474302155021762, 43.564095655786183, 0.0 ] } },
{ "type": "Feature", "properties": { "stop_id": "stop_point:SP_1413", "stop_name": "Bûches", "location_type": 0, "wheelchair_boarding": 1, "route_type": 3.0 }, "geometry": { "type": "Point", "coordinates": [ 1.39430062212864, 43.635836714869122, 0.0 ] } },
{ "type": "Feature", "properties": { "stop_id": "stop_point:SP_1414", "stop_name": "Vouet", "location_type": 0, "wheelchair_boarding": 1, "route_type": 3.0 }, "geometry": { "type": "Point", "coordinates": [ 1.396463381835019, 43.552633394166172, 0.0 ] } },
{ "type": "Feature", "properties": { "stop_id": "stop_point:SP_1415", "stop_name": "Champs Pinsons", "location_type": 0, "wheelchair_boarding": 1, "route_type": 3.0 }, "geometry": { "type": "Point", "coordinates": [ 1.518635329854205, 43.562647386621812, 0.0 ] } },
{ "type": "Feature", "properties": { "stop_id": "stop_point:SP_1416", "stop_name": "Bergeaud", "location_type": 0, "wheelchair_boarding": 1, "route_type": 3.0 }, "geometry": { "type": "Point", "coordinates": [ 1.315058950578505, 43.497318061884386, 0.0 ] } },
{ "type": "Feature", "properties": { "stop_id": "stop_point:SP_1417", "stop_name": "Halles", "location_type": 0, "wheelchair_boarding": 1, "route_type": 3.0 }, "geometry": { "type": "Point", "coordinates": [ 1.499474495835559, 43.514617875998873, 0.0 ] } },
{ "type": "Feature", "properties": { "stop_id": "stop_point:SP_1418", "stop_name": "René Rey", "location_type": 0, "wheelchair_boarding": 2, "route_type": 3.0 }, "geometry": { "type": "Point", "coordinates": [ 1.37550249115836, 43.63619626580688, 0.0 ] } },
{ "type": "Feature", "properties": { "stop_id": "stop_point:SP_1419", "stop_name": "Charles de Gaulle", "location_type": 0, "wheelchair_boarding": 1, "route_type": 3.0 }, "geometry": { "type": "Point", "coordinates": [ 1.323800236074272, 43.468752654869846, 0.0 ] } },
{ "type": "Feature", "properties": { "stop_id": "stop_point:SP_142", "stop_name": "Montplaisir", "location_type": 0, "wheelchair_boarding": 2, "route_type": 3.0 }, "geometry": { "type": "Point", "coordinates": [ 1.376420372263559, 43.68899613979557, 0.0 ] } },
{ "type": "Feature", "properties": { "stop_id": "stop_point:SP_1420", "stop_name": "Menton", "location_type": 0, "wheelchair_boarding": 1, "route_type": 3.0 }, "geometry": { "type": "Point", "coordinates": [ 1.4976982531184, 43.651558218812838, 0.0 ] } },
{ "type": "Feature", "properties": { "stop_id": "stop_point:SP_1421", "stop_name": "Gabriel Fauré", "location_type": 0, "wheelchair_boarding": 1, "route_type": 3.0 }, "geometry": { "type": "Point", "coordinates": [ 1.347801281487506, 43.594183035921517, 0.0 ] } },
{ "type": "Feature", "properties": { "stop_id": "stop_point:SP_1422", "stop_name": "Benech", "location_type": 0, "wheelchair_boarding": 1, "route_type": 3.0 }, "geometry": { "type": "Point", "coordinates": [ 1.506262608419766, 43.616019243968807, 0.0 ] } },
{ "type": "Feature", "properties": { "stop_id": "stop_point:SP_1423", "stop_name": "Ramonville Sud", "location_type": 0, "wheelchair_boarding": 1, "route_type": 3.0 }, "geometry": { "type": "Point", "coordinates": [ 1.48207413739323, 43.537532852050958, 0.0 ] } },
{ "type": "Feature", "properties": { "stop_id": "stop_point:SP_1424", "stop_name": "Ducuing", "location_type": 0, "wheelchair_boarding": 1, "route_type": 3.0 }, "geometry": { "type": "Point", "coordinates": [ 1.460279970877678, 43.56283232424363, 0.0 ] } },
{ "type": "Feature", "properties": { "stop_id": "stop_point:SP_1425", "stop_name": "Champ del Rey", "location_type": 0, "wheelchair_boarding": 2, "route_type": 3.0 }, "geometry": { "type": "Point", "coordinates": [ 1.424189682951294, 43.717862034773447, 0.0 ] } },
{ "type": "Feature", "properties": { "stop_id": "stop_point:SP_1426", "stop_name": "Quai St Pierre", "location_type": 0, "wheelchair_boarding": 1, "route_type": 3.0 }, "geometry": { "type": "Point", "coordinates": [ 1.435167406773935, 43.603620863720131, 0.0 ] } },
{ "type": "Feature", "properties": { "stop_id": "stop_point:SP_1427", "stop_name": "Commerce", "location_type": 0, "wheelchair_boarding": 1, "route_type": 3.0 }, "geometry": { "type": "Point", "coordinates": [ 1.407928358666796, 43.52442808601149, 0.0 ] } },
{ "type": "Feature", "properties": { "stop_id": "stop_point:SP_1428", "stop_name": "Château de Soule", "location_type": 0, "wheelchair_boarding": 1, "route_type": 3.0 }, "geometry": { "type": "Point", "coordinates": [ 1.470834158604052, 43.534979696383957, 0.0 ] } },
{ "type": "Feature", "properties": { "stop_id": "stop_point:SP_1429", "stop_name": "Six Avril", "location_type": 0, "wheelchair_boarding": 1, "route_type": 3.0 }, "geometry": { "type": "Point", "coordinates": [ 1.476116096236906, 43.581352309402327, 0.0 ] } },
{ "type": "Feature", "properties": { "stop_id": "stop_point:SP_143", "stop_name": "Castanet-Tolosan", "location_type": 0, "wheelchair_boarding": 1, "route_type": 3.0 }, "geometry": { "type": "Point", "coordinates": [ 1.506628521672079, 43.508428439049602, 0.0 ] } },
{ "type": "Feature", "properties": { "stop_id": "stop_point:SP_1431", "stop_name": "Pépinière Basso Cambo", "location_type": 0, "wheelchair_boarding": 1, "route_type": 3.0 }, "geometry": { "type": "Point", "coordinates": [ 1.385976914247126, 43.566841997833549, 0.0 ] } },
{ "type": "Feature", "properties": { "stop_id": "stop_point:SP_1434", "stop_name": "Riquet", "location_type": 0, "wheelchair_boarding": 1, "route_type": 3.0 }, "geometry": { "type": "Point", "coordinates": [ 1.453322575598113, 43.609069482446053, 0.0 ] } },
{ "type": "Feature", "properties": { "stop_id": "stop_point:SP_1436", "stop_name": "Langlade", "location_type": 0, "wheelchair_boarding": 1, "route_type": 3.0 }, "geometry": { "type": "Point", "coordinates": [ 1.424320932685449, 43.57028254196922, 0.0 ] } },
{ "type": "Feature", "properties": { "stop_id": "stop_point:SP_1437", "stop_name": "Rachou", "location_type": 0, "wheelchair_boarding": 1, "route_type": 3.0 }, "geometry": { "type": "Point", "coordinates": [ 1.453533031837585, 43.586766282578701, 0.0 ] } },
{ "type": "Feature", "properties": { "stop_id": "stop_point:SP_1438", "stop_name": "Eglise Pouvourville", "location_type": 0, "wheelchair_boarding": 1, "route_type": 3.0 }, "geometry": { "type": "Point", "coordinates": [ 1.454743422901907, 43.548535617693858, 0.0 ] } },
{ "type": "Feature", "properties": { "stop_id": "stop_point:SP_1439", "stop_name": "Tournefeuille Les Chênes", "location_type": 0, "wheelchair_boarding": 1, "route_type": 3.0 }, "geometry": { "type": "Point", "coordinates": [ 1.344430734745504, 43.584607187823096, 0.0 ] } },
{ "type": "Feature", "properties": { "stop_id": "stop_point:SP_144", "stop_name": "Ancely", "location_type": 0, "wheelchair_boarding": 1, "route_type": 0.0 }, "geometry": { "type": "Point", "coordinates": [ 1.396968672498925, 43.618203285076504, 0.0 ] } },
{ "type": "Feature", "properties": { "stop_id": "stop_point:SP_1441", "stop_name": "Gauguin", "location_type": 0, "wheelchair_boarding": 1, "route_type": 3.0 }, "geometry": { "type": "Point", "coordinates": [ 1.3877962109567, 43.641308902322834, 0.0 ] } },
{ "type": "Feature", "properties": { "stop_id": "stop_point:SP_1442", "stop_name": "St-Jean Lestang", "location_type": 0, "wheelchair_boarding": 1, "route_type": 3.0 }, "geometry": { "type": "Point", "coordinates": [ 1.500352850189529, 43.670767326873651, 0.0 ] } },
{ "type": "Feature", "properties": { "stop_id": "stop_point:SP_1443", "stop_name": "Parc du Canal", "location_type": 0, "wheelchair_boarding": 1, "route_type": 3.0 }, "geometry": { "type": "Point", "coordinates": [ 1.48515809322932, 43.553262055913741, 0.0 ] } },
{ "type": "Feature", "properties": { "stop_id": "stop_point:SP_1444", "stop_name": "Ayguesvives Collège", "location_type": 0, "wheelchair_boarding": 2, "route_type": 3.0 }, "geometry": { "type": "Point", "coordinates": [ 1.598515601634874, 43.43674983704458, 0.0 ] } },
{ "type": "Feature", "properties": { "stop_id": "stop_point:SP_1445", "stop_name": "Larrey", "location_type": 0, "wheelchair_boarding": 1, "route_type": 3.0 }, "geometry": { "type": "Point", "coordinates": [ 1.456803777071406, 43.553320630007235, 0.0 ] } },
{ "type": "Feature", "properties": { "stop_id": "stop_point:SP_1448", "stop_name": "Galapagos", "location_type": 0, "wheelchair_boarding": 1, "route_type": 3.0 }, "geometry": { "type": "Point", "coordinates": [ 1.5180393036765, 43.560166639328919, 0.0 ] } },
{ "type": "Feature", "properties": { "stop_id": "stop_point:SP_1449", "stop_name": "Les Plassines", "location_type": 0, "wheelchair_boarding": 2, "route_type": 3.0 }, "geometry": { "type": "Point", "coordinates": [ 1.546935068602556, 43.62742495992083, 0.0 ] } },
{ "type": "Feature", "properties": { "stop_id": "stop_point:SP_145", "stop_name": "Pré Vicinal", "location_type": 0, "wheelchair_boarding": 1, "route_type": 3.0 }, "geometry": { "type": "Point", "coordinates": [ 1.34066272706571, 43.540126750937333, 0.0 ] } },
{ "type": "Feature", "properties": { "stop_id": "stop_point:SP_1450", "stop_name": "Ramonville", "location_type": 0, "wheelchair_boarding": 1, "route_type": 3.0 }, "geometry": { "type": "Point", "coordinates": [ 1.477001484438033, 43.556066459713733, 0.0 ] } },
{ "type": "Feature", "properties": { "stop_id": "stop_point:SP_1451", "stop_name": "Occitanie", "location_type": 0, "wheelchair_boarding": 1, "route_type": 3.0 }, "geometry": { "type": "Point", "coordinates": [ 1.408747100702982, 43.525200905794989, 0.0 ] } },
{ "type": "Feature", "properties": { "stop_id": "stop_point:SP_1452", "stop_name": "Flambère", "location_type": 0, "wheelchair_boarding": 1, "route_type": 3.0 }, "geometry": { "type": "Point", "coordinates": [ 1.390534241854318, 43.608628163312332, 0.0 ] } },
{ "type": "Feature", "properties": { "stop_id": "stop_point:SP_1453", "stop_name": "Pins", "location_type": 0, "wheelchair_boarding": 1, "route_type": 3.0 }, "geometry": { "type": "Point", "coordinates": [ 1.503783020397805, 43.616293191126758, 0.0 ] } },
{ "type": "Feature", "properties": { "stop_id": "stop_point:SP_1454", "stop_name": "Palanques", "location_type": 0, "wheelchair_boarding": 1, "route_type": 3.0 }, "geometry": { "type": "Point", "coordinates": [ 1.404537357995332, 43.5350479198786, 0.0 ] } },
{ "type": "Feature", "properties": { "stop_id": "stop_point:SP_1457", "stop_name": "Carmin", "location_type": 0, "wheelchair_boarding": 2, "route_type": 3.0 }, "geometry": { "type": "Point", "coordinates": [ 1.502029871256396, 43.55145862134578, 0.0 ] } },